{
"type": "FeatureCollection",
"name": "osm_schools_GHA",
"crs": { "type": "name", "properties": { "name": "urn:ogc:def:crs:OGC:1.3:CRS84" } },
"features": [
{ "type": "Feature", "properties": { "id": "osm_n31211432", "name": "Tamale Girls International School", "level": "Unknown", "iso": "GHA", "country": "Ghana", "source": "osm" }, "geometry": { "type": "Point", "coordinates": [ -0.8467519, 9.3963037 ] } },
{ "type": "Feature", "properties": { "id": "osm_n372584500", "name": "Garrison Basic School", "level": "Unknown", "iso": "GHA", "country": "Ghana", "source": "osm" }, "geometry": { "type": "Point", "coordinates": [ -0.1595568, 5.5885377 ] } },
{ "type": "Feature", "properties": { "id": "osm_n372806897", "name": "Achimota Preparatory/Junior High School", "level": "Unknown", "iso": "GHA", "country": "Ghana", "source": "osm" }, "geometry": { "type": "Point", "coordinates": [ -0.2186587, 5.6225681 ] } },
{ "type": "Feature", "properties": { "id": "osm_n901048397", "name": "Roman Catholic Basic School", "level": "Unknown", "iso": "GHA", "country": "Ghana", "source": "osm" }, "geometry": { "type": "Point", "coordinates": [ 0.6383656, 5.7791163 ] } },
{ "type": "Feature", "properties": { "id": "osm_n901048919", "name": "Azizanya Primary School", "level": "Unknown", "iso": "GHA", "country": "Ghana", "source": "osm" }, "geometry": { "type": "Point", "coordinates": [ 0.638481, 5.7798395 ] } },
{ "type": "Feature", "properties": { "id": "osm_n916585944", "name": "Atorkor Primary School", "level": "Unknown", "iso": "GHA", "country": "Ghana", "source": "osm" }, "geometry": { "type": "Point", "coordinates": [ 0.8273781, 5.7802845 ] } },
{ "type": "Feature", "properties": { "id": "osm_n918988105", "name": "Dzita Primary School", "level": "Unknown", "iso": "GHA", "country": "Ghana", "source": "osm" }, "geometry": { "type": "Point", "coordinates": [ 0.7707089, 5.7720831 ] } },
{ "type": "Feature", "properties": { "id": "osm_n925866724", "name": "Living Waters AME Zion Basic School", "level": "Unknown", "iso": "GHA", "country": "Ghana", "source": "osm" }, "geometry": { "type": "Point", "coordinates": [ 1.0421413, 6.0008209 ] } },
{ "type": "Feature", "properties": { "id": "osm_n925866749", "name": "Tetokope Basic School", "level": "Unknown", "iso": "GHA", "country": "Ghana", "source": "osm" }, "geometry": { "type": "Point", "coordinates": [ 1.1159225, 6.0752521 ] } },
{ "type": "Feature", "properties": { "id": "osm_n925866754", "name": "Amutinu Basic School", "level": "Unknown", "iso": "GHA", "country": "Ghana", "source": "osm" }, "geometry": { "type": "Point", "coordinates": [ 1.0558972, 6.0200445 ] } },
{ "type": "Feature", "properties": { "id": "osm_n1000064915", "name": "Alpha Beta Christian College", "level": "Unknown", "iso": "GHA", "country": "Ghana", "source": "osm" }, "geometry": { "type": "Point", "coordinates": [ -0.2640148, 5.5493916 ] } },
{ "type": "Feature", "properties": { "id": "osm_n1206246956", "name": "Fanida International School", "level": "Unknown", "iso": "GHA", "country": "Ghana", "source": "osm" }, "geometry": { "type": "Point", "coordinates": [ -0.1899493, 5.6169601 ] } },
{ "type": "Feature", "properties": { "id": "osm_n1244717920", "name": "Little Treasures Montessori School", "level": "Unknown", "iso": "GHA", "country": "Ghana", "source": "osm" }, "geometry": { "type": "Point", "coordinates": [ -0.1926247, 5.5997563 ] } },
{ "type": "Feature", "properties": { "id": "osm_n1251736959", "name": "King of Kings International School", "level": "Unknown", "iso": "GHA", "country": "Ghana", "source": "osm" }, "geometry": { "type": "Point", "coordinates": [ -0.2031967, 5.6115668 ] } },
{ "type": "Feature", "properties": { "id": "osm_n1270558726", "name": "Golden Age School", "level": "Unknown", "iso": "GHA", "country": "Ghana", "source": "osm" }, "geometry": { "type": "Point", "coordinates": [ -0.2132542, 5.6108129 ] } },
{ "type": "Feature", "properties": { "id": "osm_n1286975287", "name": "Living Faith Preparatory School", "level": "Unknown", "iso": "GHA", "country": "Ghana", "source": "osm" }, "geometry": { "type": "Point", "coordinates": [ 0.5950027, 5.9966511 ] } },
{ "type": "Feature", "properties": { "id": "osm_n1329904474", "name": "Unknown", "level": "Unknown", "iso": "GHA", "country": "Ghana", "source": "osm" }, "geometry": { "type": "Point", "coordinates": [ -0.6326312, 5.9003689 ] } },
{ "type": "Feature", "properties": { "id": "osm_n1542217050", "name": "Unique School", "level": "Unknown", "iso": "GHA", "country": "Ghana", "source": "osm" }, "geometry": { "type": "Point", "coordinates": [ -0.6745598, 5.546935 ] } },
{ "type": "Feature", "properties": { "id": "osm_n1542217065", "name": "Unknown", "level": "Unknown", "iso": "GHA", "country": "Ghana", "source": "osm" }, "geometry": { "type": "Point", "coordinates": [ -0.6745966, 5.5456082 ] } },
{ "type": "Feature", "properties": { "id": "osm_n1590950151", "name": "Military Academy & Training Schools", "level": "Unknown", "iso": "GHA", "country": "Ghana", "source": "osm" }, "geometry": { "type": "Point", "coordinates": [ -0.1244127, 5.5690524 ] } },
{ "type": "Feature", "properties": { "id": "osm_n1673705772", "name": "Greenfield School", "level": "Unknown", "iso": "GHA", "country": "Ghana", "source": "osm" }, "geometry": { "type": "Point", "coordinates": [ -0.711738, 5.556913 ] } },
{ "type": "Feature", "properties": { "id": "osm_n1673705810", "name": "Swedru International School (SWIS)", "level": "Unknown", "iso": "GHA", "country": "Ghana", "source": "osm" }, "geometry": { "type": "Point", "coordinates": [ -0.6808278, 5.5412129 ] } },
{ "type": "Feature", "properties": { "id": "osm_n1708912191", "name": "Christ the King School", "level": "Unknown", "iso": "GHA", "country": "Ghana", "source": "osm" }, "geometry": { "type": "Point", "coordinates": [ -0.7005994, 5.544093 ] } },
{ "type": "Feature", "properties": { "id": "osm_n1720438411", "name": "Kokrobite Basic School", "level": "Unknown", "iso": "GHA", "country": "Ghana", "source": "osm" }, "geometry": { "type": "Point", "coordinates": [ -0.3678329, 5.4965558 ] } },
{ "type": "Feature", "properties": { "id": "osm_n1791541105", "name": "EP Primary School", "level": "Unknown", "iso": "GHA", "country": "Ghana", "source": "osm" }, "geometry": { "type": "Point", "coordinates": [ -0.8446346, 9.3969499 ] } },
{ "type": "Feature", "properties": { "id": "osm_n1791567108", "name": "Unknown", "level": "Unknown", "iso": "GHA", "country": "Ghana", "source": "osm" }, "geometry": { "type": "Point", "coordinates": [ -0.8318351, 9.3988023 ] } },
{ "type": "Feature", "properties": { "id": "osm_n1791592416", "name": "SDA School", "level": "Unknown", "iso": "GHA", "country": "Ghana", "source": "osm" }, "geometry": { "type": "Point", "coordinates": [ -0.8313309, 9.3999825 ] } },
{ "type": "Feature", "properties": { "id": "osm_n1791665848", "name": "Tamale Nurses & Midwifery Training College", "level": "Unknown", "iso": "GHA", "country": "Ghana", "source": "osm" }, "geometry": { "type": "Point", "coordinates": [ -0.8252154, 9.3898262 ] } },
{ "type": "Feature", "properties": { "id": "osm_n1801451389", "name": "Springforth International school", "level": "Unknown", "iso": "GHA", "country": "Ghana", "source": "osm" }, "geometry": { "type": "Point", "coordinates": [ -0.1273595, 5.6517446 ] } },
{ "type": "Feature", "properties": { "id": "osm_n1820610789", "name": "Business College International", "level": "Unknown", "iso": "GHA", "country": "Ghana", "source": "osm" }, "geometry": { "type": "Point", "coordinates": [ -0.844469, 9.4513937 ] } },
{ "type": "Feature", "properties": { "id": "osm_n1836489057", "name": "Kpawumo Children’s Home and School", "level": "Unknown", "iso": "GHA", "country": "Ghana", "source": "osm" }, "geometry": { "type": "Point", "coordinates": [ -0.7931091, 9.442688 ] } },
{ "type": "Feature", "properties": { "id": "osm_n1872554612", "name": "Ziavi Dzogbe Methodist Primaly School", "level": "Unknown", "iso": "GHA", "country": "Ghana", "source": "osm" }, "geometry": { "type": "Point", "coordinates": [ 0.4477518, 6.6344832 ] } },
{ "type": "Feature", "properties": { "id": "osm_n1877222868", "name": "Lamashegu Experimental Primary & Junior High School", "level": "Unknown", "iso": "GHA", "country": "Ghana", "source": "osm" }, "geometry": { "type": "Point", "coordinates": [ -0.8494014, 9.3932131 ] } },
{ "type": "Feature", "properties": { "id": "osm_n1880275862", "name": "Bishops JHS", "level": "Unknown", "iso": "GHA", "country": "Ghana", "source": "osm" }, "geometry": { "type": "Point", "coordinates": [ -0.8563161, 9.4257286 ] } },
{ "type": "Feature", "properties": { "id": "osm_n1880277384", "name": "UDS Graduate School", "level": "Unknown", "iso": "GHA", "country": "Ghana", "source": "osm" }, "geometry": { "type": "Point", "coordinates": [ -0.8617074, 9.4310047 ] } },
{ "type": "Feature", "properties": { "id": "osm_n1880284700", "name": "Tamale International School", "level": "Unknown", "iso": "GHA", "country": "Ghana", "source": "osm" }, "geometry": { "type": "Point", "coordinates": [ -0.8584029, 9.4555424 ] } },
{ "type": "Feature", "properties": { "id": "osm_n1880285312", "name": "Etoyle Royale School", "level": "Unknown", "iso": "GHA", "country": "Ghana", "source": "osm" }, "geometry": { "type": "Point", "coordinates": [ -0.8573253, 9.4546004 ] } },
{ "type": "Feature", "properties": { "id": "osm_n1914665845", "name": "katigri D.A primary", "level": "Unknown", "iso": "GHA", "country": "Ghana", "source": "osm" }, "geometry": { "type": "Point", "coordinates": [ -1.205976, 10.3760188 ] } },
{ "type": "Feature", "properties": { "id": "osm_n1914665851", "name": "Unknown", "level": "Unknown", "iso": "GHA", "country": "Ghana", "source": "osm" }, "geometry": { "type": "Point", "coordinates": [ -1.1347466, 10.4154202 ] } },
{ "type": "Feature", "properties": { "id": "osm_n1914665855", "name": "Kunkua D.A Primary School", "level": "Unknown", "iso": "GHA", "country": "Ghana", "source": "osm" }, "geometry": { "type": "Point", "coordinates": [ -1.1194811, 10.4170232 ] } },
{ "type": "Feature", "properties": { "id": "osm_n1914665856", "name": "Kimkadina primary school", "level": "Unknown", "iso": "GHA", "country": "Ghana", "source": "osm" }, "geometry": { "type": "Point", "coordinates": [ -0.9430931, 10.4290596 ] } },
{ "type": "Feature", "properties": { "id": "osm_n1914665857", "name": "Kimkandina D/A Prim", "level": "Unknown", "iso": "GHA", "country": "Ghana", "source": "osm" }, "geometry": { "type": "Point", "coordinates": [ -0.9429439, 10.4291082 ] } },
{ "type": "Feature", "properties": { "id": "osm_n1914665858", "name": "Baasa Primary", "level": "Unknown", "iso": "GHA", "country": "Ghana", "source": "osm" }, "geometry": { "type": "Point", "coordinates": [ -1.2967621, 10.4309734 ] } },
{ "type": "Feature", "properties": { "id": "osm_n1914665860", "name": "kpasenkpe D.A primary school", "level": "Unknown", "iso": "GHA", "country": "Ghana", "source": "osm" }, "geometry": { "type": "Point", "coordinates": [ -1.0500277, 10.444872 ] } },
{ "type": "Feature", "properties": { "id": "osm_n1914665861", "name": "kpasenkpe D.A JHS", "level": "Unknown", "iso": "GHA", "country": "Ghana", "source": "osm" }, "geometry": { "type": "Point", "coordinates": [ -1.0497473, 10.4459778 ] } },
{ "type": "Feature", "properties": { "id": "osm_n1914665862", "name": "Uwasi Tuedemah primary school", "level": "Unknown", "iso": "GHA", "country": "Ghana", "source": "osm" }, "geometry": { "type": "Point", "coordinates": [ -1.2173733, 10.452515 ] } },
{ "type": "Feature", "properties": { "id": "osm_n1914665863", "name": "Naadima Primary", "level": "Unknown", "iso": "GHA", "country": "Ghana", "source": "osm" }, "geometry": { "type": "Point", "coordinates": [ -1.2665532, 10.4540338 ] } },
{ "type": "Feature", "properties": { "id": "osm_n1914665865", "name": "fumbisi english and arabic school", "level": "Unknown", "iso": "GHA", "country": "Ghana", "source": "osm" }, "geometry": { "type": "Point", "coordinates": [ -1.3040231, 10.4603835 ] } },
{ "type": "Feature", "properties": { "id": "osm_n1914665866", "name": "Sariba D/A Primary School", "level": "Unknown", "iso": "GHA", "country": "Ghana", "source": "osm" }, "geometry": { "type": "Point", "coordinates": [ -0.9440759, 10.4797401 ] } },
{ "type": "Feature", "properties": { "id": "osm_n1914665867", "name": "Uwasi primary school", "level": "Unknown", "iso": "GHA", "country": "Ghana", "source": "osm" }, "geometry": { "type": "Point", "coordinates": [ -1.2266271, 10.4805175 ] } },
{ "type": "Feature", "properties": { "id": "osm_n1914665869", "name": "Buterisa primary", "level": "Unknown", "iso": "GHA", "country": "Ghana", "source": "osm" }, "geometry": { "type": "Point", "coordinates": [ -1.2770689, 10.4811461 ] } },
{ "type": "Feature", "properties": { "id": "osm_n1914665870", "name": "Kasiesa Prim Sch", "level": "Unknown", "iso": "GHA", "country": "Ghana", "source": "osm" }, "geometry": { "type": "Point", "coordinates": [ -1.3007091, 10.4921474 ] } },
{ "type": "Feature", "properties": { "id": "osm_n1914665871", "name": "Du D.A primary", "level": "Unknown", "iso": "GHA", "country": "Ghana", "source": "osm" }, "geometry": { "type": "Point", "coordinates": [ -0.9864044, 10.495695 ] } },
{ "type": "Feature", "properties": { "id": "osm_n1914665872", "name": "Zamsa Prim Sch", "level": "Unknown", "iso": "GHA", "country": "Ghana", "source": "osm" }, "geometry": { "type": "Point", "coordinates": [ -1.2227228, 10.5416699 ] } },
{ "type": "Feature", "properties": { "id": "osm_n1914665873", "name": "Chansa JHS", "level": "Unknown", "iso": "GHA", "country": "Ghana", "source": "osm" }, "geometry": { "type": "Point", "coordinates": [ -1.1930933, 10.5737042 ] } },
{ "type": "Feature", "properties": { "id": "osm_n1914665874", "name": "Chansa Prim Sch", "level": "Unknown", "iso": "GHA", "country": "Ghana", "source": "osm" }, "geometry": { "type": "Point", "coordinates": [ -1.193323, 10.574887 ] } },
{ "type": "Feature", "properties": { "id": "osm_n1936109510", "name": "School of Hygiene", "level": "Unknown", "iso": "GHA", "country": "Ghana", "source": "osm" }, "geometry": { "type": "Point", "coordinates": [ -0.8432433, 9.4604433 ] } },
{ "type": "Feature", "properties": { "id": "osm_n2020457544", "name": "Unknown", "level": "Unknown", "iso": "GHA", "country": "Ghana", "source": "osm" }, "geometry": { "type": "Point", "coordinates": [ -0.6550908, 5.8539716 ] } },
{ "type": "Feature", "properties": { "id": "osm_n2021262298", "name": "Aggrey College", "level": "Unknown", "iso": "GHA", "country": "Ghana", "source": "osm" }, "geometry": { "type": "Point", "coordinates": [ -1.2548315, 5.1277948 ] } },
{ "type": "Feature", "properties": { "id": "osm_n2102140453", "name": "African Angel Cottage", "level": "Unknown", "iso": "GHA", "country": "Ghana", "source": "osm" }, "geometry": { "type": "Point", "coordinates": [ -0.0687534, 5.6397365 ] } },
{ "type": "Feature", "properties": { "id": "osm_n2132115568", "name": "Unknown", "level": "Unknown", "iso": "GHA", "country": "Ghana", "source": "osm" }, "geometry": { "type": "Point", "coordinates": [ -0.7139161, 5.3094107 ] } },
{ "type": "Feature", "properties": { "id": "osm_n2145888314", "name": "Unknown", "level": "Unknown", "iso": "GHA", "country": "Ghana", "source": "osm" }, "geometry": { "type": "Point", "coordinates": [ -1.7441229, 4.9261738 ] } },
{ "type": "Feature", "properties": { "id": "osm_n2147840685", "name": "Banat Abdallah School", "level": "Unknown", "iso": "GHA", "country": "Ghana", "source": "osm" }, "geometry": { "type": "Point", "coordinates": [ -0.4126472, 5.5192681 ] } },
{ "type": "Feature", "properties": { "id": "osm_n2147841066", "name": "Unknown", "level": "Unknown", "iso": "GHA", "country": "Ghana", "source": "osm" }, "geometry": { "type": "Point", "coordinates": [ -0.259055, 5.5319986 ] } },
{ "type": "Feature", "properties": { "id": "osm_n2148020800", "name": "Cosmos School", "level": "Unknown", "iso": "GHA", "country": "Ghana", "source": "osm" }, "geometry": { "type": "Point", "coordinates": [ -0.2562699, 5.6110531 ] } },
{ "type": "Feature", "properties": { "id": "osm_n2148020803", "name": "Dental School", "level": "Unknown", "iso": "GHA", "country": "Ghana", "source": "osm" }, "geometry": { "type": "Point", "coordinates": [ -0.229165, 5.5380385 ] } },
{ "type": "Feature", "properties": { "id": "osm_n2148020861", "name": "Laterbiokorshie Primary School", "level": "Unknown", "iso": "GHA", "country": "Ghana", "source": "osm" }, "geometry": { "type": "Point", "coordinates": [ -0.2411556, 5.5508244 ] } },
{ "type": "Feature", "properties": { "id": "osm_n2148020862", "name": "Majosda Prepatory School", "level": "Unknown", "iso": "GHA", "country": "Ghana", "source": "osm" }, "geometry": { "type": "Point", "coordinates": [ -0.2397565, 5.5530004 ] } },
{ "type": "Feature", "properties": { "id": "osm_n2148020873", "name": "Mount Sinai School", "level": "Unknown", "iso": "GHA", "country": "Ghana", "source": "osm" }, "geometry": { "type": "Point", "coordinates": [ -0.2346458, 5.5322364 ] } },
{ "type": "Feature", "properties": { "id": "osm_n2148020888", "name": "Otublohum Secondary School", "level": "Unknown", "iso": "GHA", "country": "Ghana", "source": "osm" }, "geometry": { "type": "Point", "coordinates": [ -0.2390371, 5.5516466 ] } },
{ "type": "Feature", "properties": { "id": "osm_n2148021020", "name": "Unknown", "level": "Unknown", "iso": "GHA", "country": "Ghana", "source": "osm" }, "geometry": { "type": "Point", "coordinates": [ -0.2126542, 5.6400271 ] } },
{ "type": "Feature", "properties": { "id": "osm_n2148021148", "name": "Vaidhehis Nursery School", "level": "Unknown", "iso": "GHA", "country": "Ghana", "source": "osm" }, "geometry": { "type": "Point", "coordinates": [ -0.2283679, 5.604075 ] } },
{ "type": "Feature", "properties": { "id": "osm_n2150915849", "name": "Datus Complex School", "level": "Unknown", "iso": "GHA", "country": "Ghana", "source": "osm" }, "geometry": { "type": "Point", "coordinates": [ -0.0126738, 5.6651713 ] } },
{ "type": "Feature", "properties": { "id": "osm_n2150915982", "name": "Tema First Baptist School", "level": "Unknown", "iso": "GHA", "country": "Ghana", "source": "osm" }, "geometry": { "type": "Point", "coordinates": [ -0.0121379, 5.6485266 ] } },
{ "type": "Feature", "properties": { "id": "osm_n2151945180", "name": "Unknown", "level": "Unknown", "iso": "GHA", "country": "Ghana", "source": "osm" }, "geometry": { "type": "Point", "coordinates": [ -0.1083811, 5.5913288 ] } },
{ "type": "Feature", "properties": { "id": "osm_n2151945263", "name": "Unknown", "level": "Unknown", "iso": "GHA", "country": "Ghana", "source": "osm" }, "geometry": { "type": "Point", "coordinates": [ -0.0801547, 5.5954544 ] } },
{ "type": "Feature", "properties": { "id": "osm_n2152138363", "name": "Ahmadiya School", "level": "Unknown", "iso": "GHA", "country": "Ghana", "source": "osm" }, "geometry": { "type": "Point", "coordinates": [ -0.2052138, 5.7000599 ] } },
{ "type": "Feature", "properties": { "id": "osm_n2152138369", "name": "DeYoungsters School", "level": "Unknown", "iso": "GHA", "country": "Ghana", "source": "osm" }, "geometry": { "type": "Point", "coordinates": [ -0.1483548, 5.7036985 ] } },
{ "type": "Feature", "properties": { "id": "osm_n2152963078", "name": "St. Michael School", "level": "Unknown", "iso": "GHA", "country": "Ghana", "source": "osm" }, "geometry": { "type": "Point", "coordinates": [ -1.0003984, 5.8779504 ] } },
{ "type": "Feature", "properties": { "id": "osm_n2154259334", "name": "Tot to Teen", "level": "Unknown", "iso": "GHA", "country": "Ghana", "source": "osm" }, "geometry": { "type": "Point", "coordinates": [ -0.1713904, 5.6973459 ] } },
{ "type": "Feature", "properties": { "id": "osm_n2154260219", "name": "Ghana International High School", "level": "Unknown", "iso": "GHA", "country": "Ghana", "source": "osm" }, "geometry": { "type": "Point", "coordinates": [ -0.0564733, 5.8472778 ] } },
{ "type": "Feature", "properties": { "id": "osm_n2154260413", "name": "Unknown", "level": "Unknown", "iso": "GHA", "country": "Ghana", "source": "osm" }, "geometry": { "type": "Point", "coordinates": [ -0.0992845, 5.8825969 ] } },
{ "type": "Feature", "properties": { "id": "osm_n2154260419", "name": "Unknown", "level": "Unknown", "iso": "GHA", "country": "Ghana", "source": "osm" }, "geometry": { "type": "Point", "coordinates": [ -0.09318, 5.8830285 ] } },
{ "type": "Feature", "properties": { "id": "osm_n2154260499", "name": "Unknown", "level": "Unknown", "iso": "GHA", "country": "Ghana", "source": "osm" }, "geometry": { "type": "Point", "coordinates": [ -0.1461919, 5.9108698 ] } },
{ "type": "Feature", "properties": { "id": "osm_n2154260701", "name": "Unknown", "level": "Unknown", "iso": "GHA", "country": "Ghana", "source": "osm" }, "geometry": { "type": "Point", "coordinates": [ -0.0693769, 5.9386224 ] } },
{ "type": "Feature", "properties": { "id": "osm_n2159240552", "name": "Awurade Base Primary School", "level": "Unknown", "iso": "GHA", "country": "Ghana", "source": "osm" }, "geometry": { "type": "Point", "coordinates": [ -1.6805325, 6.2034241 ] } },
{ "type": "Feature", "properties": { "id": "osm_n2159240560", "name": "Kwabena Fori School", "level": "Unknown", "iso": "GHA", "country": "Ghana", "source": "osm" }, "geometry": { "type": "Point", "coordinates": [ -1.6793963, 6.2030091 ] } },
{ "type": "Feature", "properties": { "id": "osm_n2159240566", "name": "Presby Primary School", "level": "Unknown", "iso": "GHA", "country": "Ghana", "source": "osm" }, "geometry": { "type": "Point", "coordinates": [ -1.6752193, 6.2054581 ] } },
{ "type": "Feature", "properties": { "id": "osm_n2161108773", "name": "Kibi Secondary School", "level": "Unknown", "iso": "GHA", "country": "Ghana", "source": "osm" }, "geometry": { "type": "Point", "coordinates": [ -0.5590656, 6.1573614 ] } },
{ "type": "Feature", "properties": { "id": "osm_n2161442865", "name": "Primary School", "level": "Unknown", "iso": "GHA", "country": "Ghana", "source": "osm" }, "geometry": { "type": "Point", "coordinates": [ -0.5886318, 6.3223062 ] } },
{ "type": "Feature", "properties": { "id": "osm_n2162646534", "name": "Dora Memorial School", "level": "Unknown", "iso": "GHA", "country": "Ghana", "source": "osm" }, "geometry": { "type": "Point", "coordinates": [ 0.4780736, 6.5927345 ] } },
{ "type": "Feature", "properties": { "id": "osm_n2163283236", "name": "EP Primary School", "level": "Unknown", "iso": "GHA", "country": "Ghana", "source": "osm" }, "geometry": { "type": "Point", "coordinates": [ 0.6963423, 6.5479748 ] } },
{ "type": "Feature", "properties": { "id": "osm_n2167621802", "name": "Ahinsan Primary School", "level": "Unknown", "iso": "GHA", "country": "Ghana", "source": "osm" }, "geometry": { "type": "Point", "coordinates": [ -1.5992889, 6.6630163 ] } },
{ "type": "Feature", "properties": { "id": "osm_n2167621811", "name": "Atonsu Agogo Primary School", "level": "Unknown", "iso": "GHA", "country": "Ghana", "source": "osm" }, "geometry": { "type": "Point", "coordinates": [ -1.5898864, 6.6582111 ] } },
{ "type": "Feature", "properties": { "id": "osm_n2167623071", "name": "Ramseyer Institute", "level": "Unknown", "iso": "GHA", "country": "Ghana", "source": "osm" }, "geometry": { "type": "Point", "coordinates": [ -1.5740942, 6.6485311 ] } },
{ "type": "Feature", "properties": { "id": "osm_n2169660909", "name": "Adiebeba School", "level": "Unknown", "iso": "GHA", "country": "Ghana", "source": "osm" }, "geometry": { "type": "Point", "coordinates": [ -1.6151986, 6.6649426 ] } },
{ "type": "Feature", "properties": { "id": "osm_n2189770736", "name": "Catholic Junior High School", "level": "Unknown", "iso": "GHA", "country": "Ghana", "source": "osm" }, "geometry": { "type": "Point", "coordinates": [ -2.3857929, 6.9790111 ] } },
{ "type": "Feature", "properties": { "id": "osm_n2189770745", "name": "Methodist Primary School", "level": "Unknown", "iso": "GHA", "country": "Ghana", "source": "osm" }, "geometry": { "type": "Point", "coordinates": [ -2.3909269, 6.9831219 ] } },
{ "type": "Feature", "properties": { "id": "osm_n2189771722", "name": "Unknown", "level": "Unknown", "iso": "GHA", "country": "Ghana", "source": "osm" }, "geometry": { "type": "Point", "coordinates": [ -2.3881063, 6.9763506 ] } },
{ "type": "Feature", "properties": { "id": "osm_n2189771744", "name": "Reesettlement Junior High School", "level": "Unknown", "iso": "GHA", "country": "Ghana", "source": "osm" }, "geometry": { "type": "Point", "coordinates": [ -2.4063228, 6.994817 ] } },
{ "type": "Feature", "properties": { "id": "osm_n2199502859", "name": "Business Senior High School", "level": "Unknown", "iso": "GHA", "country": "Ghana", "source": "osm" }, "geometry": { "type": "Point", "coordinates": [ -2.304839, 7.3366184 ] } },
{ "type": "Feature", "properties": { "id": "osm_n2199502895", "name": "Unknown", "level": "Unknown", "iso": "GHA", "country": "Ghana", "source": "osm" }, "geometry": { "type": "Point", "coordinates": [ -2.3233937, 7.3582836 ] } },
{ "type": "Feature", "properties": { "id": "osm_n2199503510", "name": "Sacred Heart High School", "level": "Unknown", "iso": "GHA", "country": "Ghana", "source": "osm" }, "geometry": { "type": "Point", "coordinates": [ -2.3100736, 7.3423772 ] } },
{ "type": "Feature", "properties": { "id": "osm_n2269298271", "name": "Kodjonya Millennium Presby Basic Schools", "level": "Unknown", "iso": "GHA", "country": "Ghana", "source": "osm" }, "geometry": { "type": "Point", "coordinates": [ 0.0011929, 6.128412 ] } },
{ "type": "Feature", "properties": { "id": "osm_n2295811810", "name": "Akantome Junior High School", "level": "Secondary", "iso": "GHA", "country": "Ghana", "source": "osm" }, "geometry": { "type": "Point", "coordinates": [ -0.8656292, 10.8086801 ] } },
{ "type": "Feature", "properties": { "id": "osm_n2295812215", "name": "Zaare Experimantal Primary School", "level": "Primary", "iso": "GHA", "country": "Ghana", "source": "osm" }, "geometry": { "type": "Point", "coordinates": [ -0.8550921, 10.81116 ] } },
{ "type": "Feature", "properties": { "id": "osm_n2295812218", "name": "Zamse Secondary Technical School", "level": "Unknown", "iso": "GHA", "country": "Ghana", "source": "osm" }, "geometry": { "type": "Point", "coordinates": [ -0.8609555, 10.7613806 ] } },
{ "type": "Feature", "properties": { "id": "osm_n2299731435", "name": "Yebongo", "level": "Unknown", "iso": "GHA", "country": "Ghana", "source": "osm" }, "geometry": { "type": "Point", "coordinates": [ -0.945663, 10.8013244 ] } },
{ "type": "Feature", "properties": { "id": "osm_n2306716210", "name": "Unknown", "level": "Unknown", "iso": "GHA", "country": "Ghana", "source": "osm" }, "geometry": { "type": "Point", "coordinates": [ -1.0816423, 10.8736057 ] } },
{ "type": "Feature", "properties": { "id": "osm_n2306716271", "name": "St Mary's Junior High", "level": "Unknown", "iso": "GHA", "country": "Ghana", "source": "osm" }, "geometry": { "type": "Point", "coordinates": [ -1.0696108, 10.8861289 ] } },
{ "type": "Feature", "properties": { "id": "osm_n2319479418", "name": "St. Joseph's JHS School Complex", "level": "Unknown", "iso": "GHA", "country": "Ghana", "source": "osm" }, "geometry": { "type": "Point", "coordinates": [ 0.471707, 7.1540745 ] } },
{ "type": "Feature", "properties": { "id": "osm_n2319479996", "name": "St. joseph's Primary School Complex", "level": "Unknown", "iso": "GHA", "country": "Ghana", "source": "osm" }, "geometry": { "type": "Point", "coordinates": [ 0.472222, 7.1522967 ] } },
{ "type": "Feature", "properties": { "id": "osm_n2319482816", "name": "Holy Rosary Primary And Junior High School Complex", "level": "Unknown", "iso": "GHA", "country": "Ghana", "source": "osm" }, "geometry": { "type": "Point", "coordinates": [ 0.4700335, 7.1551525 ] } },
{ "type": "Feature", "properties": { "id": "osm_n2319511745", "name": "E.P. Junior High School", "level": "Unknown", "iso": "GHA", "country": "Ghana", "source": "osm" }, "geometry": { "type": "Point", "coordinates": [ 0.4744725, 7.156065 ] } },
{ "type": "Feature", "properties": { "id": "osm_n2319518099", "name": "E.P. Primary School (A)", "level": "Unknown", "iso": "GHA", "country": "Ghana", "source": "osm" }, "geometry": { "type": "Point", "coordinates": [ 0.4761782, 7.1564376 ] } },
{ "type": "Feature", "properties": { "id": "osm_n2319518770", "name": "E.P. Primary School (B)", "level": "Unknown", "iso": "GHA", "country": "Ghana", "source": "osm" }, "geometry": { "type": "Point", "coordinates": [ 0.4760124, 7.1571487 ] } },
{ "type": "Feature", "properties": { "id": "osm_n2319562072", "name": "Gbi Primary And JHS(Boys School)", "level": "Unknown", "iso": "GHA", "country": "Ghana", "source": "osm" }, "geometry": { "type": "Point", "coordinates": [ 0.4812989, 7.1544579 ] } },
{ "type": "Feature", "properties": { "id": "osm_n2319566155", "name": "St. Francis Demonstration", "level": "Unknown", "iso": "GHA", "country": "Ghana", "source": "osm" }, "geometry": { "type": "Point", "coordinates": [ 0.48864, 7.1571832 ] } },
{ "type": "Feature", "properties": { "id": "osm_n2319571112", "name": "Musama School", "level": "Unknown", "iso": "GHA", "country": "Ghana", "source": "osm" }, "geometry": { "type": "Point", "coordinates": [ 0.4775088, 7.1468065 ] } },
{ "type": "Feature", "properties": { "id": "osm_n2319589305", "name": "M/A Experimental schools(Primary And JHS)", "level": "Unknown", "iso": "GHA", "country": "Ghana", "source": "osm" }, "geometry": { "type": "Point", "coordinates": [ 0.4700871, 7.1491405 ] } },
{ "type": "Feature", "properties": { "id": "osm_n2319595221", "name": "St. Agatha's Commercial School", "level": "Unknown", "iso": "GHA", "country": "Ghana", "source": "osm" }, "geometry": { "type": "Point", "coordinates": [ 0.4660021, 7.1478018 ] } },
{ "type": "Feature", "properties": { "id": "osm_n2319599188", "name": "A.M.E. Zion Basic Schools", "level": "Unknown", "iso": "GHA", "country": "Ghana", "source": "osm" }, "geometry": { "type": "Point", "coordinates": [ 0.4668819, 7.1570476 ] } },
{ "type": "Feature", "properties": { "id": "osm_n2319605646", "name": "Orphanage School", "level": "Unknown", "iso": "GHA", "country": "Ghana", "source": "osm" }, "geometry": { "type": "Point", "coordinates": [ 0.4576229, 7.1587559 ] } },
{ "type": "Feature", "properties": { "id": "osm_n2330378599", "name": "Gingande Primary", "level": "Unknown", "iso": "GHA", "country": "Ghana", "source": "osm" }, "geometry": { "type": "Point", "coordinates": [ -0.2468461, 11.0615446 ] } },
{ "type": "Feature", "properties": { "id": "osm_n2330378602", "name": "Methodist Junior High School", "level": "Unknown", "iso": "GHA", "country": "Ghana", "source": "osm" }, "geometry": { "type": "Point", "coordinates": [ -0.2536898, 11.0571764 ] } },
{ "type": "Feature", "properties": { "id": "osm_n2330379562", "name": "Unknown", "level": "Unknown", "iso": "GHA", "country": "Ghana", "source": "osm" }, "geometry": { "type": "Point", "coordinates": [ -0.2317891, 11.0616353 ] } },
{ "type": "Feature", "properties": { "id": "osm_n2330379903", "name": "Saint Anthony Primary School", "level": "Unknown", "iso": "GHA", "country": "Ghana", "source": "osm" }, "geometry": { "type": "Point", "coordinates": [ -0.2447902, 11.0657268 ] } },
{ "type": "Feature", "properties": { "id": "osm_n2330379915", "name": "Urban Council Primary School", "level": "Unknown", "iso": "GHA", "country": "Ghana", "source": "osm" }, "geometry": { "type": "Point", "coordinates": [ -0.2323237, 11.0630915 ] } },
{ "type": "Feature", "properties": { "id": "osm_n2330379917", "name": "Winamzoa Primary School", "level": "Unknown", "iso": "GHA", "country": "Ghana", "source": "osm" }, "geometry": { "type": "Point", "coordinates": [ -0.231561, 11.0632307 ] } },
{ "type": "Feature", "properties": { "id": "osm_n2379575379", "name": "Samni Junior Highschool", "level": "Unknown", "iso": "GHA", "country": "Ghana", "source": "osm" }, "geometry": { "type": "Point", "coordinates": [ -0.6181514, 10.4655918 ] } },
{ "type": "Feature", "properties": { "id": "osm_n2379575393", "name": "Naasheriga Junior High School", "level": "Unknown", "iso": "GHA", "country": "Ghana", "source": "osm" }, "geometry": { "type": "Point", "coordinates": [ -0.3637632, 10.5244963 ] } },
{ "type": "Feature", "properties": { "id": "osm_n2379575396", "name": "Unknown", "level": "Unknown", "iso": "GHA", "country": "Ghana", "source": "osm" }, "geometry": { "type": "Point", "coordinates": [ -0.3667512, 10.5201184 ] } },
{ "type": "Feature", "properties": { "id": "osm_n2400546399", "name": "Ideal College", "level": "Unknown", "iso": "GHA", "country": "Ghana", "source": "osm" }, "geometry": { "type": "Point", "coordinates": [ -0.2750536, 5.5770263 ] } },
{ "type": "Feature", "properties": { "id": "osm_n2406182496", "name": "Old MTC, Tema", "level": "Unknown", "iso": "GHA", "country": "Ghana", "source": "osm" }, "geometry": { "type": "Point", "coordinates": [ -0.0156432, 5.6592187 ] } },
{ "type": "Feature", "properties": { "id": "osm_n2408059324", "name": "Drumming Classes", "level": "Unknown", "iso": "GHA", "country": "Ghana", "source": "osm" }, "geometry": { "type": "Point", "coordinates": [ -0.8690924, 9.450811 ] } },
{ "type": "Feature", "properties": { "id": "osm_n2416084696", "name": "Awomberew D.A. Basic School", "level": "Unknown", "iso": "GHA", "country": "Ghana", "source": "osm" }, "geometry": { "type": "Point", "coordinates": [ -0.66749, 5.449047 ] } },
{ "type": "Feature", "properties": { "id": "osm_n2509301553", "name": "Institute for Educational Development and Extention", "level": "Unknown", "iso": "GHA", "country": "Ghana", "source": "osm" }, "geometry": { "type": "Point", "coordinates": [ -0.8673343, 9.4271869 ] } },
{ "type": "Feature", "properties": { "id": "osm_n2509301554", "name": "Institute of Languages", "level": "Unknown", "iso": "GHA", "country": "Ghana", "source": "osm" }, "geometry": { "type": "Point", "coordinates": [ -0.860563, 9.4174456 ] } },
{ "type": "Feature", "properties": { "id": "osm_n2509301558", "name": "Tamale Senior High School", "level": "Unknown", "iso": "GHA", "country": "Ghana", "source": "osm" }, "geometry": { "type": "Point", "coordinates": [ -0.8620235, 9.4226781 ] } },
{ "type": "Feature", "properties": { "id": "osm_n2509309040", "name": "Ibn Taimmiya E/A Primary School", "level": "Unknown", "iso": "GHA", "country": "Ghana", "source": "osm" }, "geometry": { "type": "Point", "coordinates": [ -0.8572668, 9.4270086 ] } },
{ "type": "Feature", "properties": { "id": "osm_n2509331668", "name": "Morning Star Integrated School", "level": "Unknown", "iso": "GHA", "country": "Ghana", "source": "osm" }, "geometry": { "type": "Point", "coordinates": [ -0.8555205, 9.4286916 ] } },
{ "type": "Feature", "properties": { "id": "osm_n2509338891", "name": "Choggu Demostration Primary School \"A\"", "level": "Unknown", "iso": "GHA", "country": "Ghana", "source": "osm" }, "geometry": { "type": "Point", "coordinates": [ -0.8550111, 9.4222353 ] } },
{ "type": "Feature", "properties": { "id": "osm_n2509338892", "name": "Choggu Demostration Primary School \"B\"", "level": "Unknown", "iso": "GHA", "country": "Ghana", "source": "osm" }, "geometry": { "type": "Point", "coordinates": [ -0.8553651, 9.4225793 ] } },
{ "type": "Feature", "properties": { "id": "osm_n2509338893", "name": "Choggu Demostration Junior High School", "level": "Unknown", "iso": "GHA", "country": "Ghana", "source": "osm" }, "geometry": { "type": "Point", "coordinates": [ -0.8555502, 9.4218331 ] } },
{ "type": "Feature", "properties": { "id": "osm_n2515050557", "name": "Jumbo Primary School", "level": "Primary", "iso": "GHA", "country": "Ghana", "source": "osm" }, "geometry": { "type": "Point", "coordinates": [ 0.3313123, 8.4695646 ] } },
{ "type": "Feature", "properties": { "id": "osm_n2515536109", "name": "Unknown", "level": "Unknown", "iso": "GHA", "country": "Ghana", "source": "osm" }, "geometry": { "type": "Point", "coordinates": [ -0.7222124, 9.8905054 ] } },
{ "type": "Feature", "properties": { "id": "osm_n2515536692", "name": "Unknown", "level": "Unknown", "iso": "GHA", "country": "Ghana", "source": "osm" }, "geometry": { "type": "Point", "coordinates": [ -0.7219281, 9.8908224 ] } },
{ "type": "Feature", "properties": { "id": "osm_n2515537304", "name": "Unknown", "level": "Unknown", "iso": "GHA", "country": "Ghana", "source": "osm" }, "geometry": { "type": "Point", "coordinates": [ -0.7222956, 9.8910074 ] } },
{ "type": "Feature", "properties": { "id": "osm_n2515581081", "name": "Sung School", "level": "Unknown", "iso": "GHA", "country": "Ghana", "source": "osm" }, "geometry": { "type": "Point", "coordinates": [ -0.5435279, 9.9377869 ] } },
{ "type": "Feature", "properties": { "id": "osm_n2517028052", "name": "Techiman Primary School", "level": "Unknown", "iso": "GHA", "country": "Ghana", "source": "osm" }, "geometry": { "type": "Point", "coordinates": [ -1.9368747, 7.5783543 ] } },
{ "type": "Feature", "properties": { "id": "osm_n2520840448", "name": "Upper Primary", "level": "Unknown", "iso": "GHA", "country": "Ghana", "source": "osm" }, "geometry": { "type": "Point", "coordinates": [ -0.818616, 9.7530268 ] } },
{ "type": "Feature", "properties": { "id": "osm_n2520840453", "name": "Lower Primary", "level": "Unknown", "iso": "GHA", "country": "Ghana", "source": "osm" }, "geometry": { "type": "Point", "coordinates": [ -0.8186696, 9.7528364 ] } },
{ "type": "Feature", "properties": { "id": "osm_n2520840458", "name": "Teachers' Quarters", "level": "Unknown", "iso": "GHA", "country": "Ghana", "source": "osm" }, "geometry": { "type": "Point", "coordinates": [ -0.8196299, 9.7532224 ] } },
{ "type": "Feature", "properties": { "id": "osm_n2520840479", "name": "Junior High", "level": "Unknown", "iso": "GHA", "country": "Ghana", "source": "osm" }, "geometry": { "type": "Point", "coordinates": [ -0.8225817, 9.7470737 ] } },
{ "type": "Feature", "properties": { "id": "osm_n2520840484", "name": "Upper Primary", "level": "Unknown", "iso": "GHA", "country": "Ghana", "source": "osm" }, "geometry": { "type": "Point", "coordinates": [ -0.8230537, 9.7470446 ] } },
{ "type": "Feature", "properties": { "id": "osm_n2520840489", "name": "Lower Primary", "level": "Unknown", "iso": "GHA", "country": "Ghana", "source": "osm" }, "geometry": { "type": "Point", "coordinates": [ -0.8230966, 9.7476156 ] } },
{ "type": "Feature", "properties": { "id": "osm_n2520840499", "name": "Teachers' Quarters", "level": "Unknown", "iso": "GHA", "country": "Ghana", "source": "osm" }, "geometry": { "type": "Point", "coordinates": [ -0.823094, 9.7465926 ] } },
{ "type": "Feature", "properties": { "id": "osm_n2520964243", "name": "Dipale Primary School", "level": "Unknown", "iso": "GHA", "country": "Ghana", "source": "osm" }, "geometry": { "type": "Point", "coordinates": [ -0.9356015, 9.8038747 ] } },
{ "type": "Feature", "properties": { "id": "osm_n2520964246", "name": "Gushie Primary School", "level": "Unknown", "iso": "GHA", "country": "Ghana", "source": "osm" }, "geometry": { "type": "Point", "coordinates": [ -0.8605264, 9.8055848 ] } },
{ "type": "Feature", "properties": { "id": "osm_n2520964247", "name": "Teachers' Quarters", "level": "Unknown", "iso": "GHA", "country": "Ghana", "source": "osm" }, "geometry": { "type": "Point", "coordinates": [ -0.8608054, 9.8053628 ] } },
{ "type": "Feature", "properties": { "id": "osm_n2520983376", "name": "Diare Junior High School A", "level": "Unknown", "iso": "GHA", "country": "Ghana", "source": "osm" }, "geometry": { "type": "Point", "coordinates": [ -0.8708985, 9.8798983 ] } },
{ "type": "Feature", "properties": { "id": "osm_n2520985104", "name": "Diare Junior High School B", "level": "Unknown", "iso": "GHA", "country": "Ghana", "source": "osm" }, "geometry": { "type": "Point", "coordinates": [ -0.8710735, 9.8595021 ] } },
{ "type": "Feature", "properties": { "id": "osm_n2520992641", "name": "Maligunaayili Lower Primary School", "level": "Unknown", "iso": "GHA", "country": "Ghana", "source": "osm" }, "geometry": { "type": "Point", "coordinates": [ -0.7700737, 9.8165757 ] } },
{ "type": "Feature", "properties": { "id": "osm_n2520992642", "name": "Maligunaayili Kindergartend", "level": "Unknown", "iso": "GHA", "country": "Ghana", "source": "osm" }, "geometry": { "type": "Point", "coordinates": [ -0.7732199, 9.8158198 ] } },
{ "type": "Feature", "properties": { "id": "osm_n2526128417", "name": "Zorko JHS", "level": "Unknown", "iso": "GHA", "country": "Ghana", "source": "osm" }, "geometry": { "type": "Point", "coordinates": [ -0.8884538, 10.8971272 ] } },
{ "type": "Feature", "properties": { "id": "osm_n2526128955", "name": "Unknown", "level": "Unknown", "iso": "GHA", "country": "Ghana", "source": "osm" }, "geometry": { "type": "Point", "coordinates": [ -0.8961597, 10.8740065 ] } },
{ "type": "Feature", "properties": { "id": "osm_n2543526015", "name": "Arabic School", "level": "Unknown", "iso": "GHA", "country": "Ghana", "source": "osm" }, "geometry": { "type": "Point", "coordinates": [ -0.7195225, 9.8946858 ] } },
{ "type": "Feature", "properties": { "id": "osm_n2581068691", "name": "Akosombo Internationa School", "level": "Unknown", "iso": "GHA", "country": "Ghana", "source": "osm" }, "geometry": { "type": "Point", "coordinates": [ 0.0534253, 6.2851258 ] } },
{ "type": "Feature", "properties": { "id": "osm_n2622097835", "name": "Mexico Junior High School", "level": "Unknown", "iso": "GHA", "country": "Ghana", "source": "osm" }, "geometry": { "type": "Point", "coordinates": [ -0.0110253, 5.6301043 ] } },
{ "type": "Feature", "properties": { "id": "osm_n2926170809", "name": "Ghana School of Law", "level": "Unknown", "iso": "GHA", "country": "Ghana", "source": "osm" }, "geometry": { "type": "Point", "coordinates": [ -0.2055789, 5.5466313 ] } },
{ "type": "Feature", "properties": { "id": "osm_n3032289146", "name": "Unknown", "level": "Unknown", "iso": "GHA", "country": "Ghana", "source": "osm" }, "geometry": { "type": "Point", "coordinates": [ -0.4439145, 5.5600053 ] } },
{ "type": "Feature", "properties": { "id": "osm_n3032399087", "name": "Unknown", "level": "Unknown", "iso": "GHA", "country": "Ghana", "source": "osm" }, "geometry": { "type": "Point", "coordinates": [ -0.4309187, 5.5634105 ] } },
{ "type": "Feature", "properties": { "id": "osm_n3070233530", "name": "Golden Mission International School", "level": "Unknown", "iso": "GHA", "country": "Ghana", "source": "osm" }, "geometry": { "type": "Point", "coordinates": [ -0.2088017, 5.5882731 ] } },
{ "type": "Feature", "properties": { "id": "osm_n3103580198", "name": "Crown Prince", "level": "Unknown", "iso": "GHA", "country": "Ghana", "source": "osm" }, "geometry": { "type": "Point", "coordinates": [ -0.2603515, 5.6032118 ] } },
{ "type": "Feature", "properties": { "id": "osm_n3121241763", "name": "P and G High School", "level": "Unknown", "iso": "GHA", "country": "Ghana", "source": "osm" }, "geometry": { "type": "Point", "coordinates": [ -1.6703904, 6.66791 ] } },
{ "type": "Feature", "properties": { "id": "osm_n3121241764", "name": "Aburaso Methodist Primary school", "level": "Unknown", "iso": "GHA", "country": "Ghana", "source": "osm" }, "geometry": { "type": "Point", "coordinates": [ -1.6712669, 6.6664619 ] } },
{ "type": "Feature", "properties": { "id": "osm_n3123797168", "name": "Abibiman Complex School", "level": "Unknown", "iso": "GHA", "country": "Ghana", "source": "osm" }, "geometry": { "type": "Point", "coordinates": [ -0.245635, 5.5874684 ] } },
{ "type": "Feature", "properties": { "id": "osm_n3133712042", "name": "Cables & Wireless Cluster of Schools", "level": "Unknown", "iso": "GHA", "country": "Ghana", "source": "osm" }, "geometry": { "type": "Point", "coordinates": [ -0.2400464, 5.586014 ] } },
{ "type": "Feature", "properties": { "id": "osm_n3146487456", "name": "State Boys Primary and JHS", "level": "Unknown", "iso": "GHA", "country": "Ghana", "source": "osm" }, "geometry": { "type": "Point", "coordinates": [ -1.62967, 6.7097557 ] } },
{ "type": "Feature", "properties": { "id": "osm_n3188233282", "name": "Unknown", "level": "Unknown", "iso": "GHA", "country": "Ghana", "source": "osm" }, "geometry": { "type": "Point", "coordinates": [ 1.1845652, 6.1227885 ] } },
{ "type": "Feature", "properties": { "id": "osm_n3218120062", "name": "Christian Home School", "level": "Unknown", "iso": "GHA", "country": "Ghana", "source": "osm" }, "geometry": { "type": "Point", "coordinates": [ -0.2667069, 5.5585077 ] } },
{ "type": "Feature", "properties": { "id": "osm_n3220651504", "name": "Unknown", "level": "Unknown", "iso": "GHA", "country": "Ghana", "source": "osm" }, "geometry": { "type": "Point", "coordinates": [ -0.5546868, 10.4119832 ] } },
{ "type": "Feature", "properties": { "id": "osm_n3236101689", "name": "New Atuabo Basic School Complex", "level": "Unknown", "iso": "GHA", "country": "Ghana", "source": "osm" }, "geometry": { "type": "Point", "coordinates": [ -1.9758176, 5.3175435 ] } },
{ "type": "Feature", "properties": { "id": "osm_n3243127721", "name": "Amo Basic School", "level": "Unknown", "iso": "GHA", "country": "Ghana", "source": "osm" }, "geometry": { "type": "Point", "coordinates": [ -1.9932879, 5.2960618 ] } },
{ "type": "Feature", "properties": { "id": "osm_n3253512714", "name": "Unknown", "level": "Unknown", "iso": "GHA", "country": "Ghana", "source": "osm" }, "geometry": { "type": "Point", "coordinates": [ 0.796607, 6.1309046 ] } },
{ "type": "Feature", "properties": { "id": "osm_n3299103309", "name": "Unknown", "level": "Unknown", "iso": "GHA", "country": "Ghana", "source": "osm" }, "geometry": { "type": "Point", "coordinates": [ 0.8083103, 6.117499 ] } },
{ "type": "Feature", "properties": { "id": "osm_n3303368847", "name": "Unknown", "level": "Unknown", "iso": "GHA", "country": "Ghana", "source": "osm" }, "geometry": { "type": "Point", "coordinates": [ 0.9906013, 5.9183665 ] } },
{ "type": "Feature", "properties": { "id": "osm_n3357013338", "name": "Al-Rayan International School", "level": "Unknown", "iso": "GHA", "country": "Ghana", "source": "osm" }, "geometry": { "type": "Point", "coordinates": [ -0.1600502, 5.6295516 ] } },
{ "type": "Feature", "properties": { "id": "osm_n3464354328", "name": "Unknown", "level": "Unknown", "iso": "GHA", "country": "Ghana", "source": "osm" }, "geometry": { "type": "Point", "coordinates": [ 0.9002413, 5.7924974 ] } },
{ "type": "Feature", "properties": { "id": "osm_n3496547021", "name": "The Intellectuals School", "level": "Unknown", "iso": "GHA", "country": "Ghana", "source": "osm" }, "geometry": { "type": "Point", "coordinates": [ -0.2726065, 5.6796236 ] } },
{ "type": "Feature", "properties": { "id": "osm_n3500174721", "name": "Christ Shalom Preparatory School", "level": "Unknown", "iso": "GHA", "country": "Ghana", "source": "osm" }, "geometry": { "type": "Point", "coordinates": [ 0.4712751, 7.1566231 ] } },
{ "type": "Feature", "properties": { "id": "osm_n3621687506", "name": "Deks Educational Institute", "level": "Unknown", "iso": "GHA", "country": "Ghana", "source": "osm" }, "geometry": { "type": "Point", "coordinates": [ -0.0161207, 5.6662848 ] } },
{ "type": "Feature", "properties": { "id": "osm_n3648759945", "name": "Presbyterian Primary School", "level": "Unknown", "iso": "GHA", "country": "Ghana", "source": "osm" }, "geometry": { "type": "Point", "coordinates": [ -0.0384922, 5.6816199 ] } },
{ "type": "Feature", "properties": { "id": "osm_n3648759946", "name": "Unknown", "level": "Unknown", "iso": "GHA", "country": "Ghana", "source": "osm" }, "geometry": { "type": "Point", "coordinates": [ -0.0399822, 5.6798667 ] } },
{ "type": "Feature", "properties": { "id": "osm_n3665190016", "name": "Osu Ringway Estate Basic School - GES Model School", "level": "Unknown", "iso": "GHA", "country": "Ghana", "source": "osm" }, "geometry": { "type": "Point", "coordinates": [ -0.1870107, 5.5654077 ] } },
{ "type": "Feature", "properties": { "id": "osm_n3676307200", "name": "Step-by-Step School", "level": "Unknown", "iso": "GHA", "country": "Ghana", "source": "osm" }, "geometry": { "type": "Point", "coordinates": [ -0.2591599, 5.5573435 ] } },
{ "type": "Feature", "properties": { "id": "osm_n3681426826", "name": "Arbtur Fischer Catholic Primary and Junior High School", "level": "Unknown", "iso": "GHA", "country": "Ghana", "source": "osm" }, "geometry": { "type": "Point", "coordinates": [ -1.8225293, 4.8911272 ] } },
{ "type": "Feature", "properties": { "id": "osm_n3688118052", "name": "Dabala Junction Basic School", "level": "Unknown", "iso": "GHA", "country": "Ghana", "source": "osm" }, "geometry": { "type": "Point", "coordinates": [ 0.6618323, 6.0200413 ] } },
{ "type": "Feature", "properties": { "id": "osm_n3722374904", "name": "Unknown", "level": "Unknown", "iso": "GHA", "country": "Ghana", "source": "osm" }, "geometry": { "type": "Point", "coordinates": [ -0.1645245, 5.6669864 ] } },
{ "type": "Feature", "properties": { "id": "osm_n3731304736", "name": "S.D.A. Presparatory School", "level": "Unknown", "iso": "GHA", "country": "Ghana", "source": "osm" }, "geometry": { "type": "Point", "coordinates": [ -0.5314456, 6.3696593 ] } },
{ "type": "Feature", "properties": { "id": "osm_n3740288022", "name": "Unknown", "level": "Unknown", "iso": "GHA", "country": "Ghana", "source": "osm" }, "geometry": { "type": "Point", "coordinates": [ -0.2425291, 5.5473947 ] } },
{ "type": "Feature", "properties": { "id": "osm_n3781008079", "name": "All Saint Parish School", "level": "Unknown", "iso": "GHA", "country": "Ghana", "source": "osm" }, "geometry": { "type": "Point", "coordinates": [ -1.7586478, 4.8983009 ] } },
{ "type": "Feature", "properties": { "id": "osm_n3782612113", "name": "Bethel Methodist School", "level": "Unknown", "iso": "GHA", "country": "Ghana", "source": "osm" }, "geometry": { "type": "Point", "coordinates": [ -1.7599874, 4.8944338 ] } },
{ "type": "Feature", "properties": { "id": "osm_n3782641298", "name": "Roman JHS", "level": "Unknown", "iso": "GHA", "country": "Ghana", "source": "osm" }, "geometry": { "type": "Point", "coordinates": [ -1.7561524, 4.9017939 ] } },
{ "type": "Feature", "properties": { "id": "osm_n3782683230", "name": "Axim Road JHS", "level": "Unknown", "iso": "GHA", "country": "Ghana", "source": "osm" }, "geometry": { "type": "Point", "coordinates": [ -1.7601627, 4.8917174 ] } },
{ "type": "Feature", "properties": { "id": "osm_n3793281504", "name": "New Apple International Language School", "level": "Unknown", "iso": "GHA", "country": "Ghana", "source": "osm" }, "geometry": { "type": "Point", "coordinates": [ -2.001135, 5.2823254 ] } },
{ "type": "Feature", "properties": { "id": "osm_n3793455576", "name": "Avenui Methodist Primary School", "level": "Unknown", "iso": "GHA", "country": "Ghana", "source": "osm" }, "geometry": { "type": "Point", "coordinates": [ 0.3152886, 6.6011334 ] } },
{ "type": "Feature", "properties": { "id": "osm_n3793455578", "name": "Awudome Vocational Training Institute", "level": "Unknown", "iso": "GHA", "country": "Ghana", "source": "osm" }, "geometry": { "type": "Point", "coordinates": [ 0.3156041, 6.6032404 ] } },
{ "type": "Feature", "properties": { "id": "osm_n3793455579", "name": "E.P. Basic Schools", "level": "Unknown", "iso": "GHA", "country": "Ghana", "source": "osm" }, "geometry": { "type": "Point", "coordinates": [ 0.3389014, 6.6489124 ] } },
{ "type": "Feature", "properties": { "id": "osm_n3793455580", "name": "E.P. Basic Schools", "level": "Unknown", "iso": "GHA", "country": "Ghana", "source": "osm" }, "geometry": { "type": "Point", "coordinates": [ 0.3851299, 6.731967 ] } },
{ "type": "Feature", "properties": { "id": "osm_n3793455586", "name": "Saviefe Deme Schools", "level": "Unknown", "iso": "GHA", "country": "Ghana", "source": "osm" }, "geometry": { "type": "Point", "coordinates": [ 0.4162444, 6.7740075 ] } },
{ "type": "Feature", "properties": { "id": "osm_n3801131057", "name": "Local Authority Junior Secondary", "level": "Unknown", "iso": "GHA", "country": "Ghana", "source": "osm" }, "geometry": { "type": "Point", "coordinates": [ 0.4394812, 6.997155 ] } },
{ "type": "Feature", "properties": { "id": "osm_n3802640770", "name": "Modern Brains Academy Preparatory School", "level": "Unknown", "iso": "GHA", "country": "Ghana", "source": "osm" }, "geometry": { "type": "Point", "coordinates": [ 0.4370054, 6.9035091 ] } },
{ "type": "Feature", "properties": { "id": "osm_n3802641881", "name": "Ve Gbodome Primary School", "level": "Unknown", "iso": "GHA", "country": "Ghana", "source": "osm" }, "geometry": { "type": "Point", "coordinates": [ 0.4586446, 6.9636443 ] } },
{ "type": "Feature", "properties": { "id": "osm_n3802723684", "name": "Nyagbo Odumase Basic Schools", "level": "Unknown", "iso": "GHA", "country": "Ghana", "source": "osm" }, "geometry": { "type": "Point", "coordinates": [ 0.3713242, 6.7981792 ] } },
{ "type": "Feature", "properties": { "id": "osm_n3802723685", "name": "Tafi Agome Basic School", "level": "Unknown", "iso": "GHA", "country": "Ghana", "source": "osm" }, "geometry": { "type": "Point", "coordinates": [ 0.393255, 6.849136 ] } },
{ "type": "Feature", "properties": { "id": "osm_n3815384194", "name": "Tarkwa Midwifery Training School", "level": "Unknown", "iso": "GHA", "country": "Ghana", "source": "osm" }, "geometry": { "type": "Point", "coordinates": [ -1.9863147, 5.3078682 ] } },
{ "type": "Feature", "properties": { "id": "osm_n3819267397", "name": "AIMS Ghana", "level": "Unknown", "iso": "GHA", "country": "Ghana", "source": "osm" }, "geometry": { "type": "Point", "coordinates": [ -1.1438145, 5.1675727 ] } },
{ "type": "Feature", "properties": { "id": "osm_n3819267403", "name": "Sammo Senior High School, Cape Coast", "level": "Unknown", "iso": "GHA", "country": "Ghana", "source": "osm" }, "geometry": { "type": "Point", "coordinates": [ -1.2052919, 5.15213 ] } },
{ "type": "Feature", "properties": { "id": "osm_n3819267404", "name": "Sekondi School for the Deaf", "level": "Unknown", "iso": "GHA", "country": "Ghana", "source": "osm" }, "geometry": { "type": "Point", "coordinates": [ -1.6857934, 4.98777 ] } },
{ "type": "Feature", "properties": { "id": "osm_n3830300481", "name": "Fayef International School", "level": "Unknown", "iso": "GHA", "country": "Ghana", "source": "osm" }, "geometry": { "type": "Point", "coordinates": [ -0.3906829, 5.5135193 ] } },
{ "type": "Feature", "properties": { "id": "osm_n3830300484", "name": "New Convent Academy", "level": "Unknown", "iso": "GHA", "country": "Ghana", "source": "osm" }, "geometry": { "type": "Point", "coordinates": [ -0.3868225, 5.5306536 ] } },
{ "type": "Feature", "properties": { "id": "osm_n3830300486", "name": "Sheperdo Preparatory School", "level": "Unknown", "iso": "GHA", "country": "Ghana", "source": "osm" }, "geometry": { "type": "Point", "coordinates": [ -0.3876776, 5.5269112 ] } },
{ "type": "Feature", "properties": { "id": "osm_n3830300487", "name": "Stockwell Montessori School", "level": "Unknown", "iso": "GHA", "country": "Ghana", "source": "osm" }, "geometry": { "type": "Point", "coordinates": [ -0.3832992, 5.5380538 ] } },
{ "type": "Feature", "properties": { "id": "osm_n3837950397", "name": "Aggrey Memorial International School", "level": "Unknown", "iso": "GHA", "country": "Ghana", "source": "osm" }, "geometry": { "type": "Point", "coordinates": [ -0.1947567, 5.5759264 ] } },
{ "type": "Feature", "properties": { "id": "osm_n3848970819", "name": "Mount Zion Basic School", "level": "Unknown", "iso": "GHA", "country": "Ghana", "source": "osm" }, "geometry": { "type": "Point", "coordinates": [ -0.2026116, 5.5812295 ] } },
{ "type": "Feature", "properties": { "id": "osm_n3916319599", "name": "Abor E.P. School", "level": "Unknown", "iso": "GHA", "country": "Ghana", "source": "osm" }, "geometry": { "type": "Point", "coordinates": [ 0.8632973, 6.0584131 ] } },
{ "type": "Feature", "properties": { "id": "osm_n3939618557", "name": "Integrated Community Center for Employable Skills", "level": "Unknown", "iso": "GHA", "country": "Ghana", "source": "osm" }, "geometry": { "type": "Point", "coordinates": [ -1.6405961, 5.0110915 ] } },
{ "type": "Feature", "properties": { "id": "osm_n3950017300", "name": "Dannaks Senior High School", "level": "Unknown", "iso": "GHA", "country": "Ghana", "source": "osm" }, "geometry": { "type": "Point", "coordinates": [ -0.2007183, 5.594027 ] } },
{ "type": "Feature", "properties": { "id": "osm_n3950017305", "name": "Neupert School", "level": "Unknown", "iso": "GHA", "country": "Ghana", "source": "osm" }, "geometry": { "type": "Point", "coordinates": [ -0.2050074, 5.5959623 ] } },
{ "type": "Feature", "properties": { "id": "osm_n3952728945", "name": "Unknown", "level": "Unknown", "iso": "GHA", "country": "Ghana", "source": "osm" }, "geometry": { "type": "Point", "coordinates": [ 0.7968738, 6.135313 ] } },
{ "type": "Feature", "properties": { "id": "osm_n3960375611", "name": "AME Zion Basic Schools", "level": "Unknown", "iso": "GHA", "country": "Ghana", "source": "osm" }, "geometry": { "type": "Point", "coordinates": [ 1.0274607, 5.9797736 ] } },
{ "type": "Feature", "properties": { "id": "osm_n3961469676", "name": "Bright Brains International Academy", "level": "Unknown", "iso": "GHA", "country": "Ghana", "source": "osm" }, "geometry": { "type": "Point", "coordinates": [ -0.2000859, 5.6021658 ] } },
{ "type": "Feature", "properties": { "id": "osm_n3961469678", "name": "Dzokson Business College", "level": "Unknown", "iso": "GHA", "country": "Ghana", "source": "osm" }, "geometry": { "type": "Point", "coordinates": [ -0.2108593, 5.5929519 ] } },
{ "type": "Feature", "properties": { "id": "osm_n3961469681", "name": "Jerusalem Basic School", "level": "Unknown", "iso": "GHA", "country": "Ghana", "source": "osm" }, "geometry": { "type": "Point", "coordinates": [ -0.2092216, 5.592012 ] } },
{ "type": "Feature", "properties": { "id": "osm_n3961469684", "name": "Teacher Adam Memorial School", "level": "Unknown", "iso": "GHA", "country": "Ghana", "source": "osm" }, "geometry": { "type": "Point", "coordinates": [ -0.2108329, 5.5941519 ] } },
{ "type": "Feature", "properties": { "id": "osm_n3985330211", "name": "Unknown", "level": "Unknown", "iso": "GHA", "country": "Ghana", "source": "osm" }, "geometry": { "type": "Point", "coordinates": [ -0.0950586, 5.6044409 ] } },
{ "type": "Feature", "properties": { "id": "osm_n3985333158", "name": "Teshie Estate Preparatory School (TEPS)", "level": "Unknown", "iso": "GHA", "country": "Ghana", "source": "osm" }, "geometry": { "type": "Point", "coordinates": [ -0.0975853, 5.5997695 ] } },
{ "type": "Feature", "properties": { "id": "osm_n3985379657", "name": "Hill Top Preparatory School", "level": "Unknown", "iso": "GHA", "country": "Ghana", "source": "osm" }, "geometry": { "type": "Point", "coordinates": [ -0.089426, 5.5991982 ] } },
{ "type": "Feature", "properties": { "id": "osm_n3997291245", "name": "Unknown", "level": "Unknown", "iso": "GHA", "country": "Ghana", "source": "osm" }, "geometry": { "type": "Point", "coordinates": [ -0.0174952, 9.4447895 ] } },
{ "type": "Feature", "properties": { "id": "osm_n4005792839", "name": "Saint Anne's School", "level": "Unknown", "iso": "GHA", "country": "Ghana", "source": "osm" }, "geometry": { "type": "Point", "coordinates": [ -1.8349116, 9.047544 ] } },
{ "type": "Feature", "properties": { "id": "osm_n4018362075", "name": "Queen's International School", "level": "Unknown", "iso": "GHA", "country": "Ghana", "source": "osm" }, "geometry": { "type": "Point", "coordinates": [ -0.1480143, 5.6375238 ] } },
{ "type": "Feature", "properties": { "id": "osm_n4037240689", "name": "Bishop Mc Calla Preparatory JHS", "level": "Unknown", "iso": "GHA", "country": "Ghana", "source": "osm" }, "geometry": { "type": "Point", "coordinates": [ -0.4318518, 5.534205 ] } },
{ "type": "Feature", "properties": { "id": "osm_n4037255589", "name": "Komantse Methodist JHS", "level": "Unknown", "iso": "GHA", "country": "Ghana", "source": "osm" }, "geometry": { "type": "Point", "coordinates": [ -1.07649, 5.2015557 ] } },
{ "type": "Feature", "properties": { "id": "osm_n4040949623", "name": "Tarkwa John Taylor School", "level": "Unknown", "iso": "GHA", "country": "Ghana", "source": "osm" }, "geometry": { "type": "Point", "coordinates": [ -1.9869098, 5.3110118 ] } },
{ "type": "Feature", "properties": { "id": "osm_n4040955972", "name": "Ahwitieso Roman Catholic Basic Schools", "level": "Unknown", "iso": "GHA", "country": "Ghana", "source": "osm" }, "geometry": { "type": "Point", "coordinates": [ -2.0131946, 5.2309416 ] } },
{ "type": "Feature", "properties": { "id": "osm_n4055644107", "name": "Ghana Air Force Schools", "level": "Unknown", "iso": "GHA", "country": "Ghana", "source": "osm" }, "geometry": { "type": "Point", "coordinates": [ -1.7714208, 4.8933588 ] } },
{ "type": "Feature", "properties": { "id": "osm_n4056390485", "name": "E-Language Laboratory", "level": "Unknown", "iso": "GHA", "country": "Ghana", "source": "osm" }, "geometry": { "type": "Point", "coordinates": [ -0.2189539, 5.5980183 ] } },
{ "type": "Feature", "properties": { "id": "osm_n4065582437", "name": "Junior High School - JHS", "level": "Unknown", "iso": "GHA", "country": "Ghana", "source": "osm" }, "geometry": { "type": "Point", "coordinates": [ -1.3848604, 6.7939268 ] } },
{ "type": "Feature", "properties": { "id": "osm_n4067018120", "name": "Ann's Preparatory JSS", "level": "Unknown", "iso": "GHA", "country": "Ghana", "source": "osm" }, "geometry": { "type": "Point", "coordinates": [ -0.2309557, 5.5916783 ] } },
{ "type": "Feature", "properties": { "id": "osm_n4092451845", "name": "Yiziiri Primary School", "level": "Unknown", "iso": "GHA", "country": "Ghana", "source": "osm" }, "geometry": { "type": "Point", "coordinates": [ -2.7140645, 10.4027952 ] } },
{ "type": "Feature", "properties": { "id": "osm_n4099225974", "name": "31st D.W.M. Pre and Preperatory School", "level": "Unknown", "iso": "GHA", "country": "Ghana", "source": "osm" }, "geometry": { "type": "Point", "coordinates": [ -0.6973985, 5.5379192 ] } },
{ "type": "Feature", "properties": { "id": "osm_n4099362164", "name": "Swedru Happy Home School (SWEHAPS)", "level": "Unknown", "iso": "GHA", "country": "Ghana", "source": "osm" }, "geometry": { "type": "Point", "coordinates": [ -0.6901956, 5.5224115 ] } },
{ "type": "Feature", "properties": { "id": "osm_n4099387141", "name": "Church of Christ Preperatory School", "level": "Unknown", "iso": "GHA", "country": "Ghana", "source": "osm" }, "geometry": { "type": "Point", "coordinates": [ -0.6979096, 5.5380869 ] } },
{ "type": "Feature", "properties": { "id": "osm_n4099553159", "name": "Swedru Angelican Primary School", "level": "Unknown", "iso": "GHA", "country": "Ghana", "source": "osm" }, "geometry": { "type": "Point", "coordinates": [ -0.7120444, 5.5314835 ] } },
{ "type": "Feature", "properties": { "id": "osm_n4101947564", "name": "Agona District D Assembly School", "level": "Unknown", "iso": "GHA", "country": "Ghana", "source": "osm" }, "geometry": { "type": "Point", "coordinates": [ -0.7090684, 5.5308769 ] } },
{ "type": "Feature", "properties": { "id": "osm_n4104619077", "name": "Fountain of Youth International", "level": "Unknown", "iso": "GHA", "country": "Ghana", "source": "osm" }, "geometry": { "type": "Point", "coordinates": [ -0.1857511, 5.5688203 ] } },
{ "type": "Feature", "properties": { "id": "osm_n4148666865", "name": "Unknown", "level": "Unknown", "iso": "GHA", "country": "Ghana", "source": "osm" }, "geometry": { "type": "Point", "coordinates": [ -0.773253, 6.6077963 ] } },
{ "type": "Feature", "properties": { "id": "osm_n4149635364", "name": "St. Paul's Anglican Primary School", "level": "Unknown", "iso": "GHA", "country": "Ghana", "source": "osm" }, "geometry": { "type": "Point", "coordinates": [ -0.7771253, 6.6007681 ] } },
{ "type": "Feature", "properties": { "id": "osm_n4156627369", "name": "St. Pauls Junior High School", "level": "Unknown", "iso": "GHA", "country": "Ghana", "source": "osm" }, "geometry": { "type": "Point", "coordinates": [ -0.0078533, 5.6457771 ] } },
{ "type": "Feature", "properties": { "id": "osm_n4157336041", "name": "Bluecrest College", "level": "Unknown", "iso": "GHA", "country": "Ghana", "source": "osm" }, "geometry": { "type": "Point", "coordinates": [ -0.2085086, 5.5727387 ] } },
{ "type": "Feature", "properties": { "id": "osm_n4157336044", "name": "Mercy School", "level": "Unknown", "iso": "GHA", "country": "Ghana", "source": "osm" }, "geometry": { "type": "Point", "coordinates": [ -0.2027868, 5.5695896 ] } },
{ "type": "Feature", "properties": { "id": "osm_n4157336046", "name": "Springwell School", "level": "Unknown", "iso": "GHA", "country": "Ghana", "source": "osm" }, "geometry": { "type": "Point", "coordinates": [ -0.2118171, 5.5717777 ] } },
{ "type": "Feature", "properties": { "id": "osm_n4161230962", "name": "Unknown", "level": "Unknown", "iso": "GHA", "country": "Ghana", "source": "osm" }, "geometry": { "type": "Point", "coordinates": [ -1.347545, 5.2719581 ] } },
{ "type": "Feature", "properties": { "id": "osm_n4161815114", "name": "Gewas Senior High Technical School", "level": "Unknown", "iso": "GHA", "country": "Ghana", "source": "osm" }, "geometry": { "type": "Point", "coordinates": [ -1.3921394, 5.102919 ] } },
{ "type": "Feature", "properties": { "id": "osm_n4167509944", "name": "Unknown", "level": "Unknown", "iso": "GHA", "country": "Ghana", "source": "osm" }, "geometry": { "type": "Point", "coordinates": [ -0.1842168, 6.1252604 ] } },
{ "type": "Feature", "properties": { "id": "osm_n4167516256", "name": "Jan van Ieperen", "level": "Unknown", "iso": "GHA", "country": "Ghana", "source": "osm" }, "geometry": { "type": "Point", "coordinates": [ -0.0366145, 6.0423357 ] } },
{ "type": "Feature", "properties": { "id": "osm_n4167518591", "name": "Unknown", "level": "Unknown", "iso": "GHA", "country": "Ghana", "source": "osm" }, "geometry": { "type": "Point", "coordinates": [ -0.1542715, 6.1204983 ] } },
{ "type": "Feature", "properties": { "id": "osm_n4167518701", "name": "Presbyterian Primary School", "level": "Unknown", "iso": "GHA", "country": "Ghana", "source": "osm" }, "geometry": { "type": "Point", "coordinates": [ -0.1979565, 6.125576 ] } },
{ "type": "Feature", "properties": { "id": "osm_n4182850464", "name": "Unknown", "level": "Unknown", "iso": "GHA", "country": "Ghana", "source": "osm" }, "geometry": { "type": "Point", "coordinates": [ 0.4890548, 6.9347933 ] } },
{ "type": "Feature", "properties": { "id": "osm_n4183905314", "name": "Unknown", "level": "Unknown", "iso": "GHA", "country": "Ghana", "source": "osm" }, "geometry": { "type": "Point", "coordinates": [ 0.3718443, 6.0498785 ] } },
{ "type": "Feature", "properties": { "id": "osm_n4184127868", "name": "Modern Star School", "level": "Unknown", "iso": "GHA", "country": "Ghana", "source": "osm" }, "geometry": { "type": "Point", "coordinates": [ -0.9481226, 9.3137926 ] } },
{ "type": "Feature", "properties": { "id": "osm_n4184924489", "name": "John Haavad Primary & JHS", "level": "Unknown", "iso": "GHA", "country": "Ghana", "source": "osm" }, "geometry": { "type": "Point", "coordinates": [ -0.209553, 5.576413 ] } },
{ "type": "Feature", "properties": { "id": "osm_n4211404350", "name": "LA-Bawaleshie JHS & Primary School", "level": "Unknown", "iso": "GHA", "country": "Ghana", "source": "osm" }, "geometry": { "type": "Point", "coordinates": [ -0.1674865, 5.6421666 ] } },
{ "type": "Feature", "properties": { "id": "osm_n4215460910", "name": "Ponyentanga R/C JHS", "level": "Unknown", "iso": "GHA", "country": "Ghana", "source": "osm" }, "geometry": { "type": "Point", "coordinates": [ -2.4631106, 9.8796392 ] } },
{ "type": "Feature", "properties": { "id": "osm_n4215460918", "name": "Ponyentanga Day Nursery", "level": "Unknown", "iso": "GHA", "country": "Ghana", "source": "osm" }, "geometry": { "type": "Point", "coordinates": [ -2.462998, 9.8707077 ] } },
{ "type": "Feature", "properties": { "id": "osm_n4215466583", "name": "Amankwah R/C Primary School", "level": "Unknown", "iso": "GHA", "country": "Ghana", "source": "osm" }, "geometry": { "type": "Point", "coordinates": [ 0.029078, 7.0528246 ] } },
{ "type": "Feature", "properties": { "id": "osm_n4215466585", "name": "Amankwah R/C JHS", "level": "Unknown", "iso": "GHA", "country": "Ghana", "source": "osm" }, "geometry": { "type": "Point", "coordinates": [ 0.0301885, 7.052585 ] } },
{ "type": "Feature", "properties": { "id": "osm_n4215477596", "name": "Adu Pri D/A Primary School", "level": "Unknown", "iso": "GHA", "country": "Ghana", "source": "osm" }, "geometry": { "type": "Point", "coordinates": [ -2.2549302, 6.3569328 ] } },
{ "type": "Feature", "properties": { "id": "osm_n4215477597", "name": "Adu Pri D/A JHS", "level": "Unknown", "iso": "GHA", "country": "Ghana", "source": "osm" }, "geometry": { "type": "Point", "coordinates": [ -2.2553567, 6.3560691 ] } },
{ "type": "Feature", "properties": { "id": "osm_n4215557118", "name": "Jaang D/A JHS", "level": "Unknown", "iso": "GHA", "country": "Ghana", "source": "osm" }, "geometry": { "type": "Point", "coordinates": [ -2.4630062, 10.1968775 ] } },
{ "type": "Feature", "properties": { "id": "osm_n4215557119", "name": "Jaang D/A Primary", "level": "Unknown", "iso": "GHA", "country": "Ghana", "source": "osm" }, "geometry": { "type": "Point", "coordinates": [ -2.463092, 10.1983928 ] } },
{ "type": "Feature", "properties": { "id": "osm_n4215659047", "name": "Unknown", "level": "Unknown", "iso": "GHA", "country": "Ghana", "source": "osm" }, "geometry": { "type": "Point", "coordinates": [ -0.2501047, 5.6176127 ] } },
{ "type": "Feature", "properties": { "id": "osm_n4216600894", "name": "Perpetual Help School", "level": "Unknown", "iso": "GHA", "country": "Ghana", "source": "osm" }, "geometry": { "type": "Point", "coordinates": [ -0.2506648, 5.6202884 ] } },
{ "type": "Feature", "properties": { "id": "osm_n4216607982", "name": "Family Life International School", "level": "Unknown", "iso": "GHA", "country": "Ghana", "source": "osm" }, "geometry": { "type": "Point", "coordinates": [ -0.2487752, 5.622612 ] } },
{ "type": "Feature", "properties": { "id": "osm_n4217160879", "name": "Imperial College of Mines", "level": "Unknown", "iso": "GHA", "country": "Ghana", "source": "osm" }, "geometry": { "type": "Point", "coordinates": [ -2.0013241, 5.2825898 ] } },
{ "type": "Feature", "properties": { "id": "osm_n4225899684", "name": "Ahtoo Montesori School", "level": "Unknown", "iso": "GHA", "country": "Ghana", "source": "osm" }, "geometry": { "type": "Point", "coordinates": [ -0.2143026, 5.5835304 ] } },
{ "type": "Feature", "properties": { "id": "osm_n4225899686", "name": "Kings College International", "level": "Unknown", "iso": "GHA", "country": "Ghana", "source": "osm" }, "geometry": { "type": "Point", "coordinates": [ -0.2128436, 5.5821152 ] } },
{ "type": "Feature", "properties": { "id": "osm_n4243968701", "name": "Universal Preparatory School", "level": "Unknown", "iso": "GHA", "country": "Ghana", "source": "osm" }, "geometry": { "type": "Point", "coordinates": [ -0.4097161, 6.6733314 ] } },
{ "type": "Feature", "properties": { "id": "osm_n4244509756", "name": "Adjikpo Yokunya Roman Catholic School (Mount Mary College of Education demonstration school)", "level": "Unknown", "iso": "GHA", "country": "Ghana", "source": "osm" }, "geometry": { "type": "Point", "coordinates": [ -0.0144379, 6.1166979 ] } },
{ "type": "Feature", "properties": { "id": "osm_n4261592674", "name": "Catholic JHS", "level": "Unknown", "iso": "GHA", "country": "Ghana", "source": "osm" }, "geometry": { "type": "Point", "coordinates": [ -2.14549, 5.4347106 ] } },
{ "type": "Feature", "properties": { "id": "osm_n4261592675", "name": "Experimental JHS", "level": "Unknown", "iso": "GHA", "country": "Ghana", "source": "osm" }, "geometry": { "type": "Point", "coordinates": [ -2.1422239, 5.4367933 ] } },
{ "type": "Feature", "properties": { "id": "osm_n4261592676", "name": "Methodist Basic Schools", "level": "Unknown", "iso": "GHA", "country": "Ghana", "source": "osm" }, "geometry": { "type": "Point", "coordinates": [ -2.144624, 5.432406 ] } },
{ "type": "Feature", "properties": { "id": "osm_n4268473213", "name": "Victoria Memorial School", "level": "Unknown", "iso": "GHA", "country": "Ghana", "source": "osm" }, "geometry": { "type": "Point", "coordinates": [ 0.473573, 6.5901996 ] } },
{ "type": "Feature", "properties": { "id": "osm_n4286137002", "name": "Vetsisco", "level": "Unknown", "iso": "GHA", "country": "Ghana", "source": "osm" }, "geometry": { "type": "Point", "coordinates": [ -0.0415294, 5.6892968 ] } },
{ "type": "Feature", "properties": { "id": "osm_n4286137017", "name": "Tema International School", "level": "Unknown", "iso": "GHA", "country": "Ghana", "source": "osm" }, "geometry": { "type": "Point", "coordinates": [ -0.0181477, 5.7068496 ] } },
{ "type": "Feature", "properties": { "id": "osm_n4286137018", "name": "ECG Training School", "level": "Unknown", "iso": "GHA", "country": "Ghana", "source": "osm" }, "geometry": { "type": "Point", "coordinates": [ -0.0160679, 5.6573443 ] } },
{ "type": "Feature", "properties": { "id": "osm_n4286153091", "name": "Agyiri Nyarko School Complex", "level": "Unknown", "iso": "GHA", "country": "Ghana", "source": "osm" }, "geometry": { "type": "Point", "coordinates": [ -0.0441841, 5.6979181 ] } },
{ "type": "Feature", "properties": { "id": "osm_n4286153290", "name": "Unknown", "level": "Unknown", "iso": "GHA", "country": "Ghana", "source": "osm" }, "geometry": { "type": "Point", "coordinates": [ -0.0378245, 5.6831745 ] } },
{ "type": "Feature", "properties": { "id": "osm_n4286157306", "name": "Salesian of Don Bosco", "level": "Unknown", "iso": "GHA", "country": "Ghana", "source": "osm" }, "geometry": { "type": "Point", "coordinates": [ -0.0158177, 5.7059385 ] } },
{ "type": "Feature", "properties": { "id": "osm_n4286159092", "name": "Roman Catholic Primary A& B", "level": "Unknown", "iso": "GHA", "country": "Ghana", "source": "osm" }, "geometry": { "type": "Point", "coordinates": [ -0.0415455, 5.6874502 ] } },
{ "type": "Feature", "properties": { "id": "osm_n4286159093", "name": "Unknown", "level": "Unknown", "iso": "GHA", "country": "Ghana", "source": "osm" }, "geometry": { "type": "Point", "coordinates": [ -0.0418711, 5.6967616 ] } },
{ "type": "Feature", "properties": { "id": "osm_n4286160190", "name": "Witsan, Gbetsile", "level": "Unknown", "iso": "GHA", "country": "Ghana", "source": "osm" }, "geometry": { "type": "Point", "coordinates": [ -0.0121251, 5.7549123 ] } },
{ "type": "Feature", "properties": { "id": "osm_n4286172889", "name": "Zenu KKDA School", "level": "Unknown", "iso": "GHA", "country": "Ghana", "source": "osm" }, "geometry": { "type": "Point", "coordinates": [ -0.0499836, 5.7121199 ] } },
{ "type": "Feature", "properties": { "id": "osm_n4286172994", "name": "Roman Catholic J. S. S", "level": "Unknown", "iso": "GHA", "country": "Ghana", "source": "osm" }, "geometry": { "type": "Point", "coordinates": [ -0.0412131, 5.6869904 ] } },
{ "type": "Feature", "properties": { "id": "osm_n4286172995", "name": "Solidarity School", "level": "Unknown", "iso": "GHA", "country": "Ghana", "source": "osm" }, "geometry": { "type": "Point", "coordinates": [ -0.0423517, 5.6880636 ] } },
{ "type": "Feature", "properties": { "id": "osm_n4286172996", "name": "SDA School", "level": "Unknown", "iso": "GHA", "country": "Ghana", "source": "osm" }, "geometry": { "type": "Point", "coordinates": [ -0.0424737, 5.6874613 ] } },
{ "type": "Feature", "properties": { "id": "osm_n4286172998", "name": "Benardette School", "level": "Unknown", "iso": "GHA", "country": "Ghana", "source": "osm" }, "geometry": { "type": "Point", "coordinates": [ -0.0454015, 5.6915288 ] } },
{ "type": "Feature", "properties": { "id": "osm_n4286172999", "name": "Camisco School", "level": "Unknown", "iso": "GHA", "country": "Ghana", "source": "osm" }, "geometry": { "type": "Point", "coordinates": [ -0.0444523, 5.6909351 ] } },
{ "type": "Feature", "properties": { "id": "osm_n4286173005", "name": "Government No.3", "level": "Unknown", "iso": "GHA", "country": "Ghana", "source": "osm" }, "geometry": { "type": "Point", "coordinates": [ -0.0332226, 5.6896294 ] } },
{ "type": "Feature", "properties": { "id": "osm_n4286174390", "name": "St. Mary's School", "level": "Unknown", "iso": "GHA", "country": "Ghana", "source": "osm" }, "geometry": { "type": "Point", "coordinates": [ -0.0337367, 5.6902155 ] } },
{ "type": "Feature", "properties": { "id": "osm_n4291858014", "name": "St. Ignatius RC School", "level": "Unknown", "iso": "GHA", "country": "Ghana", "source": "osm" }, "geometry": { "type": "Point", "coordinates": [ -1.7674361, 4.8973795 ] } },
{ "type": "Feature", "properties": { "id": "osm_n4305848486", "name": "All Saints Anglican Kindergarten", "level": "Unknown", "iso": "GHA", "country": "Ghana", "source": "osm" }, "geometry": { "type": "Point", "coordinates": [ -0.2106744, 5.56544 ] } },
{ "type": "Feature", "properties": { "id": "osm_n4305848487", "name": "Baobab Academy", "level": "Unknown", "iso": "GHA", "country": "Ghana", "source": "osm" }, "geometry": { "type": "Point", "coordinates": [ -0.2097473, 5.565416 ] } },
{ "type": "Feature", "properties": { "id": "osm_n4311940490", "name": "Cape Coast University Campus, Nmai Dzor", "level": "Unknown", "iso": "GHA", "country": "Ghana", "source": "osm" }, "geometry": { "type": "Point", "coordinates": [ -0.0996907, 5.6907766 ] } },
{ "type": "Feature", "properties": { "id": "osm_n4311940795", "name": "Canadian International School", "level": "Unknown", "iso": "GHA", "country": "Ghana", "source": "osm" }, "geometry": { "type": "Point", "coordinates": [ -0.1247304, 5.6775066 ] } },
{ "type": "Feature", "properties": { "id": "osm_n4311942089", "name": "New nation International School", "level": "Unknown", "iso": "GHA", "country": "Ghana", "source": "osm" }, "geometry": { "type": "Point", "coordinates": [ -0.1386061, 5.6874035 ] } },
{ "type": "Feature", "properties": { "id": "osm_n4313553900", "name": "Amrahia Community School", "level": "Unknown", "iso": "GHA", "country": "Ghana", "source": "osm" }, "geometry": { "type": "Point", "coordinates": [ -0.142303, 5.7681688 ] } },
{ "type": "Feature", "properties": { "id": "osm_n4313556922", "name": "Bethel School", "level": "Unknown", "iso": "GHA", "country": "Ghana", "source": "osm" }, "geometry": { "type": "Point", "coordinates": [ -0.0442979, 5.6942731 ] } },
{ "type": "Feature", "properties": { "id": "osm_n4313556923", "name": "Life International School", "level": "Unknown", "iso": "GHA", "country": "Ghana", "source": "osm" }, "geometry": { "type": "Point", "coordinates": [ -0.045675, 5.693088 ] } },
{ "type": "Feature", "properties": { "id": "osm_n4313591620", "name": "Newland School", "level": "Unknown", "iso": "GHA", "country": "Ghana", "source": "osm" }, "geometry": { "type": "Point", "coordinates": [ -0.0419612, 5.6927963 ] } },
{ "type": "Feature", "properties": { "id": "osm_n4313597221", "name": "Redemption Valley No.1&2", "level": "Unknown", "iso": "GHA", "country": "Ghana", "source": "osm" }, "geometry": { "type": "Point", "coordinates": [ -0.0175525, 5.6765539 ] } },
{ "type": "Feature", "properties": { "id": "osm_n4313643799", "name": "Agape School Complex", "level": "Unknown", "iso": "GHA", "country": "Ghana", "source": "osm" }, "geometry": { "type": "Point", "coordinates": [ -0.0465871, 5.7087799 ] } },
{ "type": "Feature", "properties": { "id": "osm_n4313643800", "name": "Unknown", "level": "Unknown", "iso": "GHA", "country": "Ghana", "source": "osm" }, "geometry": { "type": "Point", "coordinates": [ -0.0210745, 5.6894963 ] } },
{ "type": "Feature", "properties": { "id": "osm_n4313644001", "name": "Unknown", "level": "Unknown", "iso": "GHA", "country": "Ghana", "source": "osm" }, "geometry": { "type": "Point", "coordinates": [ -0.0306876, 5.6936022 ] } },
{ "type": "Feature", "properties": { "id": "osm_n4315874827", "name": "Youth Harvest Foundation Ghana", "level": "Unknown", "iso": "GHA", "country": "Ghana", "source": "osm" }, "geometry": { "type": "Point", "coordinates": [ -0.8718382, 10.8092042 ] } },
{ "type": "Feature", "properties": { "id": "osm_n4316803033", "name": "Emando Memorial International School", "level": "Unknown", "iso": "GHA", "country": "Ghana", "source": "osm" }, "geometry": { "type": "Point", "coordinates": [ -0.2254198, 5.6151777 ] } },
{ "type": "Feature", "properties": { "id": "osm_n4324366290", "name": "St. Thomas primary and junior high school", "level": "Unknown", "iso": "GHA", "country": "Ghana", "source": "osm" }, "geometry": { "type": "Point", "coordinates": [ -0.16273, 5.5612568 ] } },
{ "type": "Feature", "properties": { "id": "osm_n4327072593", "name": "Unknown", "level": "Unknown", "iso": "GHA", "country": "Ghana", "source": "osm" }, "geometry": { "type": "Point", "coordinates": [ -1.9719518, 7.4526348 ] } },
{ "type": "Feature", "properties": { "id": "osm_n4327072594", "name": "Presbyterian School", "level": "Unknown", "iso": "GHA", "country": "Ghana", "source": "osm" }, "geometry": { "type": "Point", "coordinates": [ -1.9719243, 7.4515834 ] } },
{ "type": "Feature", "properties": { "id": "osm_n4327072596", "name": "Unknown", "level": "Unknown", "iso": "GHA", "country": "Ghana", "source": "osm" }, "geometry": { "type": "Point", "coordinates": [ -1.9727632, 7.4553485 ] } },
{ "type": "Feature", "properties": { "id": "osm_n4327115055", "name": "Unknown", "level": "Unknown", "iso": "GHA", "country": "Ghana", "source": "osm" }, "geometry": { "type": "Point", "coordinates": [ -1.9752045, 7.4584458 ] } },
{ "type": "Feature", "properties": { "id": "osm_n4329531008", "name": "Unknown", "level": "Unknown", "iso": "GHA", "country": "Ghana", "source": "osm" }, "geometry": { "type": "Point", "coordinates": [ -1.9940722, 5.3004933 ] } },
{ "type": "Feature", "properties": { "id": "osm_n4332150591", "name": "Ayensudo MA Primary and JHS", "level": "Unknown", "iso": "GHA", "country": "Ghana", "source": "osm" }, "geometry": { "type": "Point", "coordinates": [ -1.4515055, 5.0974561 ] } },
{ "type": "Feature", "properties": { "id": "osm_n4333791301", "name": "Primary School", "level": "Unknown", "iso": "GHA", "country": "Ghana", "source": "osm" }, "geometry": { "type": "Point", "coordinates": [ -0.8419962, 5.3553314 ] } },
{ "type": "Feature", "properties": { "id": "osm_n4333791302", "name": "JHS", "level": "Unknown", "iso": "GHA", "country": "Ghana", "source": "osm" }, "geometry": { "type": "Point", "coordinates": [ -0.8426851, 5.3559435 ] } },
{ "type": "Feature", "properties": { "id": "osm_n4348160696", "name": "Asanka Design School", "level": "Unknown", "iso": "GHA", "country": "Ghana", "source": "osm" }, "geometry": { "type": "Point", "coordinates": [ -0.20734, 5.5721478 ] } },
{ "type": "Feature", "properties": { "id": "osm_n4349873195", "name": "Tema Parents' Association School", "level": "Unknown", "iso": "GHA", "country": "Ghana", "source": "osm" }, "geometry": { "type": "Point", "coordinates": [ -0.0186717, 5.6551459 ] } },
{ "type": "Feature", "properties": { "id": "osm_n4350169048", "name": "Naval Base School", "level": "Unknown", "iso": "GHA", "country": "Ghana", "source": "osm" }, "geometry": { "type": "Point", "coordinates": [ 0.0293784, 5.660633 ] } },
{ "type": "Feature", "properties": { "id": "osm_n4350176917", "name": "Unknown", "level": "Unknown", "iso": "GHA", "country": "Ghana", "source": "osm" }, "geometry": { "type": "Point", "coordinates": [ -0.079655, 5.7449318 ] } },
{ "type": "Feature", "properties": { "id": "osm_n4350177514", "name": "Medass Old Site", "level": "Unknown", "iso": "GHA", "country": "Ghana", "source": "osm" }, "geometry": { "type": "Point", "coordinates": [ -0.0216797, 5.6656926 ] } },
{ "type": "Feature", "properties": { "id": "osm_n4350187410", "name": "ETY International School, Saki", "level": "Unknown", "iso": "GHA", "country": "Ghana", "source": "osm" }, "geometry": { "type": "Point", "coordinates": [ 0.0005443, 5.7241891 ] } },
{ "type": "Feature", "properties": { "id": "osm_n4350214794", "name": "Adjetey Ansah Junior High School", "level": "Unknown", "iso": "GHA", "country": "Ghana", "source": "osm" }, "geometry": { "type": "Point", "coordinates": [ 0.022213, 5.6571404 ] } },
{ "type": "Feature", "properties": { "id": "osm_n4355196789", "name": "Silver Peak Academy-Autism Center", "level": "Unknown", "iso": "GHA", "country": "Ghana", "source": "osm" }, "geometry": { "type": "Point", "coordinates": [ -0.1246255, 5.6738605 ] } },
{ "type": "Feature", "properties": { "id": "osm_n4361890294", "name": "Alliance Français", "level": "Unknown", "iso": "GHA", "country": "Ghana", "source": "osm" }, "geometry": { "type": "Point", "coordinates": [ -0.1820777, 5.5969429 ] } },
{ "type": "Feature", "properties": { "id": "osm_n4379740590", "name": "United Basic School", "level": "Unknown", "iso": "GHA", "country": "Ghana", "source": "osm" }, "geometry": { "type": "Point", "coordinates": [ -1.9902922, 10.8769972 ] } },
{ "type": "Feature", "properties": { "id": "osm_n4379740594", "name": "Vision Academy", "level": "Unknown", "iso": "GHA", "country": "Ghana", "source": "osm" }, "geometry": { "type": "Point", "coordinates": [ -1.9736036, 10.883273 ] } },
{ "type": "Feature", "properties": { "id": "osm_n4379740595", "name": "Unknown", "level": "Unknown", "iso": "GHA", "country": "Ghana", "source": "osm" }, "geometry": { "type": "Point", "coordinates": [ -1.9824621, 10.8781503 ] } },
{ "type": "Feature", "properties": { "id": "osm_n4379740600", "name": "Fountain Gate school", "level": "Unknown", "iso": "GHA", "country": "Ghana", "source": "osm" }, "geometry": { "type": "Point", "coordinates": [ -1.9822131, 10.8751098 ] } },
{ "type": "Feature", "properties": { "id": "osm_n4379740639", "name": "Unknown", "level": "Unknown", "iso": "GHA", "country": "Ghana", "source": "osm" }, "geometry": { "type": "Point", "coordinates": [ -1.9922509, 10.8758641 ] } },
{ "type": "Feature", "properties": { "id": "osm_n4379740647", "name": "Unknown", "level": "Unknown", "iso": "GHA", "country": "Ghana", "source": "osm" }, "geometry": { "type": "Point", "coordinates": [ -1.9983721, 10.8750024 ] } },
{ "type": "Feature", "properties": { "id": "osm_n4400481797", "name": "SOS Hermann Gmeiner International College", "level": "Unknown", "iso": "GHA", "country": "Ghana", "source": "osm" }, "geometry": { "type": "Point", "coordinates": [ -0.0183225, 5.6480237 ] } },
{ "type": "Feature", "properties": { "id": "osm_n4400510790", "name": "Adentan Community School", "level": "Unknown", "iso": "GHA", "country": "Ghana", "source": "osm" }, "geometry": { "type": "Point", "coordinates": [ -0.1592496, 5.7077069 ] } },
{ "type": "Feature", "properties": { "id": "osm_n4400511289", "name": "St Cecilia School, 3rd Gate", "level": "Unknown", "iso": "GHA", "country": "Ghana", "source": "osm" }, "geometry": { "type": "Point", "coordinates": [ -0.1502144, 5.6827792 ] } },
{ "type": "Feature", "properties": { "id": "osm_n4400511293", "name": "Oyarifa Presby School", "level": "Unknown", "iso": "GHA", "country": "Ghana", "source": "osm" }, "geometry": { "type": "Point", "coordinates": [ -0.1743117, 5.7466129 ] } },
{ "type": "Feature", "properties": { "id": "osm_n4400512389", "name": "Data Link University College", "level": "Unknown", "iso": "GHA", "country": "Ghana", "source": "osm" }, "geometry": { "type": "Point", "coordinates": [ -0.0237851, 5.6707858 ] } },
{ "type": "Feature", "properties": { "id": "osm_n4430017290", "name": "Holy Trinity Cathedral Senior High School", "level": "Secondary", "iso": "GHA", "country": "Ghana", "source": "osm" }, "geometry": { "type": "Point", "coordinates": [ -0.2063944, 5.5412183 ] } },
{ "type": "Feature", "properties": { "id": "osm_n4449291529", "name": "Primary School", "level": "Unknown", "iso": "GHA", "country": "Ghana", "source": "osm" }, "geometry": { "type": "Point", "coordinates": [ -0.8992436, 10.0643655 ] } },
{ "type": "Feature", "properties": { "id": "osm_n4449291530", "name": "Primary School", "level": "Unknown", "iso": "GHA", "country": "Ghana", "source": "osm" }, "geometry": { "type": "Point", "coordinates": [ -0.899367, 10.0641411 ] } },
{ "type": "Feature", "properties": { "id": "osm_n4457227759", "name": "Naval Base Basic JSS", "level": "Unknown", "iso": "GHA", "country": "Ghana", "source": "osm" }, "geometry": { "type": "Point", "coordinates": [ -1.7509925, 4.8959627 ] } },
{ "type": "Feature", "properties": { "id": "osm_n4457227760", "name": "Naval Base Basic Schools", "level": "Unknown", "iso": "GHA", "country": "Ghana", "source": "osm" }, "geometry": { "type": "Point", "coordinates": [ -1.7512331, 4.8947335 ] } },
{ "type": "Feature", "properties": { "id": "osm_n4468954745", "name": "Barbies Learning Center", "level": "Unknown", "iso": "GHA", "country": "Ghana", "source": "osm" }, "geometry": { "type": "Point", "coordinates": [ -0.0654207, 5.6564024 ] } },
{ "type": "Feature", "properties": { "id": "osm_n4468958404", "name": "Burgain International School", "level": "Unknown", "iso": "GHA", "country": "Ghana", "source": "osm" }, "geometry": { "type": "Point", "coordinates": [ -0.0663433, 5.6563597 ] } },
{ "type": "Feature", "properties": { "id": "osm_n4494021044", "name": "Christ Mission School", "level": "Unknown", "iso": "GHA", "country": "Ghana", "source": "osm" }, "geometry": { "type": "Point", "coordinates": [ -0.2702071, 5.5953937 ] } },
{ "type": "Feature", "properties": { "id": "osm_n4511220308", "name": "GIS and Remote Sensing Lab", "level": "Unknown", "iso": "GHA", "country": "Ghana", "source": "osm" }, "geometry": { "type": "Point", "coordinates": [ -2.0000875, 5.2977867 ] } },
{ "type": "Feature", "properties": { "id": "osm_n4511930889", "name": "St. Mary's RC JHS/Primary", "level": "Unknown", "iso": "GHA", "country": "Ghana", "source": "osm" }, "geometry": { "type": "Point", "coordinates": [ -1.9774764, 5.2822532 ] } },
{ "type": "Feature", "properties": { "id": "osm_n4518012043", "name": "Covenant Preparatory School", "level": "Unknown", "iso": "GHA", "country": "Ghana", "source": "osm" }, "geometry": { "type": "Point", "coordinates": [ 0.5767546, 5.9975832 ] } },
{ "type": "Feature", "properties": { "id": "osm_n4533656611", "name": "Biotechnology and Microbiology Labs, Department of Crop and Soil Sciences", "level": "Unknown", "iso": "GHA", "country": "Ghana", "source": "osm" }, "geometry": { "type": "Point", "coordinates": [ -1.5646153, 6.6757232 ] } },
{ "type": "Feature", "properties": { "id": "osm_n4544614095", "name": "Mazon Grace Academy", "level": "Unknown", "iso": "GHA", "country": "Ghana", "source": "osm" }, "geometry": { "type": "Point", "coordinates": [ -0.008299, 5.6541169 ] } },
{ "type": "Feature", "properties": { "id": "osm_n4545091693", "name": "GTP School", "level": "Unknown", "iso": "GHA", "country": "Ghana", "source": "osm" }, "geometry": { "type": "Point", "coordinates": [ -0.0044685, 5.6584546 ] } },
{ "type": "Feature", "properties": { "id": "osm_n4547672680", "name": "Roman Catholic School", "level": "Unknown", "iso": "GHA", "country": "Ghana", "source": "osm" }, "geometry": { "type": "Point", "coordinates": [ -2.6225263, 7.969854 ] } },
{ "type": "Feature", "properties": { "id": "osm_n4547672683", "name": "Unknown", "level": "Unknown", "iso": "GHA", "country": "Ghana", "source": "osm" }, "geometry": { "type": "Point", "coordinates": [ -2.6293872, 7.968093 ] } },
{ "type": "Feature", "properties": { "id": "osm_n4555927489", "name": "Nancy Preparatory School (Dawhewnya)", "level": "Unknown", "iso": "GHA", "country": "Ghana", "source": "osm" }, "geometry": { "type": "Point", "coordinates": [ 0.0499, 5.7649933 ] } },
{ "type": "Feature", "properties": { "id": "osm_n4582472589", "name": "Divine Provision School", "level": "Unknown", "iso": "GHA", "country": "Ghana", "source": "osm" }, "geometry": { "type": "Point", "coordinates": [ -0.164773, 5.5674502 ] } },
{ "type": "Feature", "properties": { "id": "osm_n4587686789", "name": "Presbyterian Primary School", "level": "Unknown", "iso": "GHA", "country": "Ghana", "source": "osm" }, "geometry": { "type": "Point", "coordinates": [ -1.3942028, 6.8494752 ] } },
{ "type": "Feature", "properties": { "id": "osm_n4590995080", "name": "UIC - Jesus' Kids Daycare Centerd", "level": "Unknown", "iso": "GHA", "country": "Ghana", "source": "osm" }, "geometry": { "type": "Point", "coordinates": [ -1.2907227, 5.1213318 ] } },
{ "type": "Feature", "properties": { "id": "osm_n4595095428", "name": "Graceland Basic School", "level": "Unknown", "iso": "GHA", "country": "Ghana", "source": "osm" }, "geometry": { "type": "Point", "coordinates": [ -0.2344248, 5.580441 ] } },
{ "type": "Feature", "properties": { "id": "osm_n4595116406", "name": "Kaneshie North 1&2 Primary and JHS", "level": "Unknown", "iso": "GHA", "country": "Ghana", "source": "osm" }, "geometry": { "type": "Point", "coordinates": [ -0.2356388, 5.5794938 ] } },
{ "type": "Feature", "properties": { "id": "osm_n4595156590", "name": "Effiduase Methodist Primary School", "level": "Unknown", "iso": "GHA", "country": "Ghana", "source": "osm" }, "geometry": { "type": "Point", "coordinates": [ -1.3996894, 6.8497742 ] } },
{ "type": "Feature", "properties": { "id": "osm_n4595249796", "name": "Wesley Prep.Sch.", "level": "Unknown", "iso": "GHA", "country": "Ghana", "source": "osm" }, "geometry": { "type": "Point", "coordinates": [ -1.3981483, 6.8494001 ] } },
{ "type": "Feature", "properties": { "id": "osm_n4607246057", "name": "Unknown", "level": "Unknown", "iso": "GHA", "country": "Ghana", "source": "osm" }, "geometry": { "type": "Point", "coordinates": [ 1.0457653, 6.0805125 ] } },
{ "type": "Feature", "properties": { "id": "osm_n4614563989", "name": "Golden Bridge Academy", "level": "Unknown", "iso": "GHA", "country": "Ghana", "source": "osm" }, "geometry": { "type": "Point", "coordinates": [ -0.9362195, 5.4062187 ] } },
{ "type": "Feature", "properties": { "id": "osm_n4621957490", "name": "R/C jhs", "level": "Unknown", "iso": "GHA", "country": "Ghana", "source": "osm" }, "geometry": { "type": "Point", "coordinates": [ -1.9653574, 7.3967912 ] } },
{ "type": "Feature", "properties": { "id": "osm_n4636308498", "name": "Emmanuel Presbytarian School", "level": "Unknown", "iso": "GHA", "country": "Ghana", "source": "osm" }, "geometry": { "type": "Point", "coordinates": [ -0.2638444, 5.5484675 ] } },
{ "type": "Feature", "properties": { "id": "osm_n4637583291", "name": "West Africa Centre for Crop Improvement", "level": "Unknown", "iso": "GHA", "country": "Ghana", "source": "osm" }, "geometry": { "type": "Point", "coordinates": [ -0.1841306, 5.6491112 ] } },
{ "type": "Feature", "properties": { "id": "osm_n4643870390", "name": "Mercy Social Centre", "level": "Unknown", "iso": "GHA", "country": "Ghana", "source": "osm" }, "geometry": { "type": "Point", "coordinates": [ -0.1351756, 5.6998126 ] } },
{ "type": "Feature", "properties": { "id": "osm_n4647741516", "name": "G P Primary School", "level": "Unknown", "iso": "GHA", "country": "Ghana", "source": "osm" }, "geometry": { "type": "Point", "coordinates": [ 0.5935021, 6.0024177 ] } },
{ "type": "Feature", "properties": { "id": "osm_n4659735795", "name": "Mater Dei ICT Academy", "level": "Unknown", "iso": "GHA", "country": "Ghana", "source": "osm" }, "geometry": { "type": "Point", "coordinates": [ -2.3232508, 7.3334381 ] } },
{ "type": "Feature", "properties": { "id": "osm_n4667341890", "name": "Great Promise School", "level": "Unknown", "iso": "GHA", "country": "Ghana", "source": "osm" }, "geometry": { "type": "Point", "coordinates": [ -0.4284948, 5.5241306 ] } },
{ "type": "Feature", "properties": { "id": "osm_n4674436489", "name": "School of Hygiene, Ho", "level": "Unknown", "iso": "GHA", "country": "Ghana", "source": "osm" }, "geometry": { "type": "Point", "coordinates": [ 0.4596698, 6.6088487 ] } },
{ "type": "Feature", "properties": { "id": "osm_n4697067470", "name": "Faith Montessori School", "level": "Unknown", "iso": "GHA", "country": "Ghana", "source": "osm" }, "geometry": { "type": "Point", "coordinates": [ -0.3104272, 5.5861977 ] } },
{ "type": "Feature", "properties": { "id": "osm_n4697067471", "name": "New Gbawe Cluster of Schools", "level": "Unknown", "iso": "GHA", "country": "Ghana", "source": "osm" }, "geometry": { "type": "Point", "coordinates": [ -0.2970242, 5.5780184 ] } },
{ "type": "Feature", "properties": { "id": "osm_n4703573222", "name": "Assemblies of God Theology Seminary", "level": "Unknown", "iso": "GHA", "country": "Ghana", "source": "osm" }, "geometry": { "type": "Point", "coordinates": [ -1.0735422, 5.2016769 ] } },
{ "type": "Feature", "properties": { "id": "osm_n4703664975", "name": "Islamic Basic School", "level": "Unknown", "iso": "GHA", "country": "Ghana", "source": "osm" }, "geometry": { "type": "Point", "coordinates": [ -2.1394332, 5.4385363 ] } },
{ "type": "Feature", "properties": { "id": "osm_n4710729537", "name": "Lady Volta Vocational Center - Electricity and Solar", "level": "Unknown", "iso": "GHA", "country": "Ghana", "source": "osm" }, "geometry": { "type": "Point", "coordinates": [ 0.4323432, 6.591713 ] } },
{ "type": "Feature", "properties": { "id": "osm_n4722388189", "name": "Health Regional Training Centre", "level": "Unknown", "iso": "GHA", "country": "Ghana", "source": "osm" }, "geometry": { "type": "Point", "coordinates": [ -1.7135538, 4.9385041 ] } },
{ "type": "Feature", "properties": { "id": "osm_n4732265523", "name": "RSWECK", "level": "Unknown", "iso": "GHA", "country": "Ghana", "source": "osm" }, "geometry": { "type": "Point", "coordinates": [ -1.5653965, 6.6722644 ] } },
{ "type": "Feature", "properties": { "id": "osm_n4739843024", "name": "Blessed School Complex", "level": "Unknown", "iso": "GHA", "country": "Ghana", "source": "osm" }, "geometry": { "type": "Point", "coordinates": [ -0.2932698, 5.559879 ] } },
{ "type": "Feature", "properties": { "id": "osm_n4739843025", "name": "Jayee University College", "level": "Unknown", "iso": "GHA", "country": "Ghana", "source": "osm" }, "geometry": { "type": "Point", "coordinates": [ -0.295182, 5.5592051 ] } },
{ "type": "Feature", "properties": { "id": "osm_n4739904328", "name": "Oblogo Cluster of Schools", "level": "Unknown", "iso": "GHA", "country": "Ghana", "source": "osm" }, "geometry": { "type": "Point", "coordinates": [ -0.3100939, 5.5581657 ] } },
{ "type": "Feature", "properties": { "id": "osm_n4740602034", "name": "Virgo Preparatory School", "level": "Unknown", "iso": "GHA", "country": "Ghana", "source": "osm" }, "geometry": { "type": "Point", "coordinates": [ -0.2131265, 5.5546946 ] } },
{ "type": "Feature", "properties": { "id": "osm_n4741156985", "name": "Unknown", "level": "Unknown", "iso": "GHA", "country": "Ghana", "source": "osm" }, "geometry": { "type": "Point", "coordinates": [ -0.010558, 5.6736962 ] } },
{ "type": "Feature", "properties": { "id": "osm_n4741326737", "name": "Bevy Bi-Lingual School", "level": "Unknown", "iso": "GHA", "country": "Ghana", "source": "osm" }, "geometry": { "type": "Point", "coordinates": [ -0.1650241, 5.6451564 ] } },
{ "type": "Feature", "properties": { "id": "osm_n4741326738", "name": "Buzzy Kids Montessori School", "level": "Unknown", "iso": "GHA", "country": "Ghana", "source": "osm" }, "geometry": { "type": "Point", "coordinates": [ -0.1688801, 5.6468352 ] } },
{ "type": "Feature", "properties": { "id": "osm_n4743213942", "name": "Gyankama Methodist Primary & JHS", "level": "Unknown", "iso": "GHA", "country": "Ghana", "source": "osm" }, "geometry": { "type": "Point", "coordinates": [ -0.1871678, 5.818216 ] } },
{ "type": "Feature", "properties": { "id": "osm_n4752865130", "name": "Unknown", "level": "Unknown", "iso": "GHA", "country": "Ghana", "source": "osm" }, "geometry": { "type": "Point", "coordinates": [ -2.0847213, 5.0094631 ] } },