{"type": "FeatureCollection", "name": "osm_schools_GHA", "features": [{"type": "Feature", "geometry": {"type": "Point", "coordinates": [-0.846752, 9.396304]}, "properties": {"id": "osm_n31211432", "name": "Tamale Girls International School"}}, {"type": "Feature", "geometry": {"type": "Point", "coordinates": [-0.159557, 5.588538]}, "properties": {"id": "osm_n372584500", "name": "Garrison Basic School", "match": "both", "match_dist_m": 38.3, "match_name": "Burma Camp Primary and Junior High School", "name_sim": 0.355}}, {"type": "Feature", "geometry": {"type": "Point", "coordinates": [-0.218659, 5.622568]}, "properties": {"id": "osm_n372806897", "name": "Achimota Preparatory/Junior High School"}}, {"type": "Feature", "geometry": {"type": "Point", "coordinates": [0.638366, 5.779116]}, "properties": {"id": "osm_n901048397", "name": "Roman Catholic Basic School"}}, {"type": "Feature", "geometry": {"type": "Point", "coordinates": [0.638481, 5.779839]}, "properties": {"id": "osm_n901048919", "name": "Azizanya Primary School"}}, {"type": "Feature", "geometry": {"type": "Point", "coordinates": [0.827378, 5.780284]}, "properties": {"id": "osm_n916585944", "name": "Atorkor Primary School"}}, {"type": "Feature", "geometry": {"type": "Point", "coordinates": [0.770709, 5.772083]}, "properties": {"id": "osm_n918988105", "name": "Dzita Primary School"}}, {"type": "Feature", "geometry": {"type": "Point", "coordinates": [1.042141, 6.000821]}, "properties": {"id": "osm_n925866724", "name": "Living Waters AME Zion Basic School"}}, {"type": "Feature", "geometry": {"type": "Point", "coordinates": [1.115922, 6.075252]}, "properties": {"id": "osm_n925866749", "name": "Tetokope Basic School"}}, {"type": "Feature", "geometry": {"type": "Point", "coordinates": [1.055897, 6.020045]}, "properties": {"id": "osm_n925866754", "name": "Amutinu Basic School"}}, {"type": "Feature", "geometry": {"type": "Point", "coordinates": [-0.264015, 5.549392]}, "properties": {"id": "osm_n1000064915", "name": "Alpha Beta Christian College", "match": "both", "match_dist_m": 74.6, "match_name": "Alpha Beta Christian College", "name_sim": 1.0}}, {"type": "Feature", "geometry": {"type": "Point", "coordinates": [-0.189949, 5.61696]}, "properties": {"id": "osm_n1206246956", "name": "Fanida International School"}}, {"type": "Feature", "geometry": {"type": "Point", "coordinates": [-0.192625, 5.599756]}, "properties": {"id": "osm_n1244717920", "name": "Little Treasures Montessori School", "match": "both", "match_dist_m": 78.9, "match_name": "Little Treasures Montessori School", "name_sim": 1.0}}, {"type": "Feature", "geometry": {"type": "Point", "coordinates": [-0.203197, 5.611567]}, "properties": {"id": "osm_n1251736959", "name": "King of Kings International School"}}, {"type": "Feature", "geometry": {"type": "Point", "coordinates": [-0.213254, 5.610813]}, "properties": {"id": "osm_n1270558726", "name": "Golden Age School"}}, {"type": "Feature", "geometry": {"type": "Point", "coordinates": [0.595003, 5.996651]}, "properties": {"id": "osm_n1286975287", "name": "Living Faith Preparatory School"}}, {"type": "Feature", "geometry": {"type": "Point", "coordinates": [-0.632631, 5.900369]}, "properties": {"id": "osm_n1329904474", "name": "Unknown"}}, {"type": "Feature", "geometry": {"type": "Point", "coordinates": [-0.67456, 5.546935]}, "properties": {"id": "osm_n1542217050", "name": "Unique School"}}, {"type": "Feature", "geometry": {"type": "Point", "coordinates": [-0.674597, 5.545608]}, "properties": {"id": "osm_n1542217065", "name": "Unknown"}}, {"type": "Feature", "geometry": {"type": "Point", "coordinates": [-0.124413, 5.569052]}, "properties": {"id": "osm_n1590950151", "name": "Military Academy & Training Schools"}}, {"type": "Feature", "geometry": {"type": "Point", "coordinates": [-0.711738, 5.556913]}, "properties": {"id": "osm_n1673705772", "name": "Greenfield School"}}, {"type": "Feature", "geometry": {"type": "Point", "coordinates": [-0.680828, 5.541213]}, "properties": {"id": "osm_n1673705810", "name": "Swedru International School (SWIS)"}}, {"type": "Feature", "geometry": {"type": "Point", "coordinates": [-0.700599, 5.544093]}, "properties": {"id": "osm_n1708912191", "name": "Christ the King School"}}, {"type": "Feature", "geometry": {"type": "Point", "coordinates": [-0.367833, 5.496556]}, "properties": {"id": "osm_n1720438411", "name": "Kokrobite Basic School"}}, {"type": "Feature", "geometry": {"type": "Point", "coordinates": [-0.844635, 9.39695]}, "properties": {"id": "osm_n1791541105", "name": "EP Primary School"}}, {"type": "Feature", "geometry": {"type": "Point", "coordinates": [-0.831835, 9.398802]}, "properties": {"id": "osm_n1791567108", "name": "Unknown"}}, {"type": "Feature", "geometry": {"type": "Point", "coordinates": [-0.831331, 9.399983]}, "properties": {"id": "osm_n1791592416", "name": "SDA School"}}, {"type": "Feature", "geometry": {"type": "Point", "coordinates": [-0.825215, 9.389826]}, "properties": {"id": "osm_n1791665848", "name": "Tamale Nurses & Midwifery Training College", "match": "both", "match_dist_m": 50.0, "match_name": "NMTC Tamale", "name_sim": 0.235}}, {"type": "Feature", "geometry": {"type": "Point", "coordinates": [-0.127359, 5.651745]}, "properties": {"id": "osm_n1801451389", "name": "Springforth International school", "match": "both", "match_dist_m": 73.8, "match_name": "Kingdom Bible Institute & Theological Seminary", "name_sim": 0.395}}, {"type": "Feature", "geometry": {"type": "Point", "coordinates": [-0.844469, 9.451394]}, "properties": {"id": "osm_n1820610789", "name": "Business College International"}}, {"type": "Feature", "geometry": {"type": "Point", "coordinates": [-0.793109, 9.442688]}, "properties": {"id": "osm_n1836489057", "name": "Kpawumo Children’s Home and School"}}, {"type": "Feature", "geometry": {"type": "Point", "coordinates": [0.447752, 6.634483]}, "properties": {"id": "osm_n1872554612", "name": "Ziavi Dzogbe Methodist Primaly School"}}, {"type": "Feature", "geometry": {"type": "Point", "coordinates": [-0.849401, 9.393213]}, "properties": {"id": "osm_n1877222868", "name": "Lamashegu Experimental Primary & Junior High School"}}, {"type": "Feature", "geometry": {"type": "Point", "coordinates": [-0.856316, 9.425729]}, "properties": {"id": "osm_n1880275862", "name": "Bishops JHS"}}, {"type": "Feature", "geometry": {"type": "Point", "coordinates": [-0.861707, 9.431005]}, "properties": {"id": "osm_n1880277384", "name": "UDS Graduate School"}}, {"type": "Feature", "geometry": {"type": "Point", "coordinates": [-0.858403, 9.455542]}, "properties": {"id": "osm_n1880284700", "name": "Tamale International School"}}, {"type": "Feature", "geometry": {"type": "Point", "coordinates": [-0.857325, 9.4546]}, "properties": {"id": "osm_n1880285312", "name": "Etoyle Royale School"}}, {"type": "Feature", "geometry": {"type": "Point", "coordinates": [-1.205976, 10.376019]}, "properties": {"id": "osm_n1914665845", "name": "katigri D.A primary"}}, {"type": "Feature", "geometry": {"type": "Point", "coordinates": [-1.134747, 10.41542]}, "properties": {"id": "osm_n1914665851", "name": "Unknown"}}, {"type": "Feature", "geometry": {"type": "Point", "coordinates": [-1.119481, 10.417023]}, "properties": {"id": "osm_n1914665855", "name": "Kunkua D.A Primary School"}}, {"type": "Feature", "geometry": {"type": "Point", "coordinates": [-0.943093, 10.42906]}, "properties": {"id": "osm_n1914665856", "name": "Kimkadina primary school"}}, {"type": "Feature", "geometry": {"type": "Point", "coordinates": [-0.942944, 10.429108]}, "properties": {"id": "osm_n1914665857", "name": "Kimkandina D/A Prim"}}, {"type": "Feature", "geometry": {"type": "Point", "coordinates": [-1.296762, 10.430973]}, "properties": {"id": "osm_n1914665858", "name": "Baasa Primary"}}, {"type": "Feature", "geometry": {"type": "Point", "coordinates": [-1.050028, 10.444872]}, "properties": {"id": "osm_n1914665860", "name": "kpasenkpe D.A primary school"}}, {"type": "Feature", "geometry": {"type": "Point", "coordinates": [-1.049747, 10.445978]}, "properties": {"id": "osm_n1914665861", "name": "kpasenkpe D.A JHS"}}, {"type": "Feature", "geometry": {"type": "Point", "coordinates": [-1.217373, 10.452515]}, "properties": {"id": "osm_n1914665862", "name": "Uwasi Tuedemah primary school"}}, {"type": "Feature", "geometry": {"type": "Point", "coordinates": [-1.266553, 10.454034]}, "properties": {"id": "osm_n1914665863", "name": "Naadima Primary"}}, {"type": "Feature", "geometry": {"type": "Point", "coordinates": [-1.304023, 10.460384]}, "properties": {"id": "osm_n1914665865", "name": "fumbisi english and arabic school"}}, {"type": "Feature", "geometry": {"type": "Point", "coordinates": [-0.944076, 10.47974]}, "properties": {"id": "osm_n1914665866", "name": "Sariba D/A Primary School"}}, {"type": "Feature", "geometry": {"type": "Point", "coordinates": [-1.226627, 10.480517]}, "properties": {"id": "osm_n1914665867", "name": "Uwasi primary school"}}, {"type": "Feature", "geometry": {"type": "Point", "coordinates": [-1.277069, 10.481146]}, "properties": {"id": "osm_n1914665869", "name": "Buterisa primary"}}, {"type": "Feature", "geometry": {"type": "Point", "coordinates": [-1.300709, 10.492147]}, "properties": {"id": "osm_n1914665870", "name": "Kasiesa Prim Sch"}}, {"type": "Feature", "geometry": {"type": "Point", "coordinates": [-0.986404, 10.495695]}, "properties": {"id": "osm_n1914665871", "name": "Du D.A primary"}}, {"type": "Feature", "geometry": {"type": "Point", "coordinates": [-1.222723, 10.54167]}, "properties": {"id": "osm_n1914665872", "name": "Zamsa Prim Sch"}}, {"type": "Feature", "geometry": {"type": "Point", "coordinates": [-1.193093, 10.573704]}, "properties": {"id": "osm_n1914665873", "name": "Chansa JHS"}}, {"type": "Feature", "geometry": {"type": "Point", "coordinates": [-1.193323, 10.574887]}, "properties": {"id": "osm_n1914665874", "name": "Chansa Prim Sch"}}, {"type": "Feature", "geometry": {"type": "Point", "coordinates": [-0.843243, 9.460443]}, "properties": {"id": "osm_n1936109510", "name": "School of Hygiene"}}, {"type": "Feature", "geometry": {"type": "Point", "coordinates": [-0.655091, 5.853972]}, "properties": {"id": "osm_n2020457544", "name": "Unknown"}}, {"type": "Feature", "geometry": {"type": "Point", "coordinates": [-1.254832, 5.127795]}, "properties": {"id": "osm_n2021262298", "name": "Aggrey College"}}, {"type": "Feature", "geometry": {"type": "Point", "coordinates": [-0.068753, 5.639736]}, "properties": {"id": "osm_n2102140453", "name": "African Angel Cottage"}}, {"type": "Feature", "geometry": {"type": "Point", "coordinates": [-0.713916, 5.309411]}, "properties": {"id": "osm_n2132115568", "name": "Unknown"}}, {"type": "Feature", "geometry": {"type": "Point", "coordinates": [-1.744123, 4.926174]}, "properties": {"id": "osm_n2145888314", "name": "Unknown"}}, {"type": "Feature", "geometry": {"type": "Point", "coordinates": [-0.412647, 5.519268]}, "properties": {"id": "osm_n2147840685", "name": "Banat Abdallah School"}}, {"type": "Feature", "geometry": {"type": "Point", "coordinates": [-0.259055, 5.531999]}, "properties": {"id": "osm_n2147841066", "name": "Unknown", "match": "both", "match_dist_m": 49.5, "match_name": "Top Class Education Centre", "name_sim": 0.182}}, {"type": "Feature", "geometry": {"type": "Point", "coordinates": [-0.25627, 5.611053]}, "properties": {"id": "osm_n2148020800", "name": "Cosmos School", "match": "both", "match_dist_m": 31.3, "match_name": "Cosmos Schools", "name_sim": 1.0}}, {"type": "Feature", "geometry": {"type": "Point", "coordinates": [-0.229165, 5.538038]}, "properties": {"id": "osm_n2148020803", "name": "Dental School", "match": "both", "match_dist_m": 89.2, "match_name": "School of Biomedical Allied Health Sciences", "name_sim": 0.214}}, {"type": "Feature", "geometry": {"type": "Point", "coordinates": [-0.241156, 5.550824]}, "properties": {"id": "osm_n2148020861", "name": "Laterbiokorshie Primary School"}}, {"type": "Feature", "geometry": {"type": "Point", "coordinates": [-0.239757, 5.553]}, "properties": {"id": "osm_n2148020862", "name": "Majosda Prepatory School"}}, {"type": "Feature", "geometry": {"type": "Point", "coordinates": [-0.234646, 5.532236]}, "properties": {"id": "osm_n2148020873", "name": "Mount Sinai School", "match": "both", "match_dist_m": 263.9, "match_name": "CCTV Training School", "name_sim": 0.632}}, {"type": "Feature", "geometry": {"type": "Point", "coordinates": [-0.239037, 5.551647]}, "properties": {"id": "osm_n2148020888", "name": "Otublohum Secondary School"}}, {"type": "Feature", "geometry": {"type": "Point", "coordinates": [-0.212654, 5.640027]}, "properties": {"id": "osm_n2148021020", "name": "Unknown"}}, {"type": "Feature", "geometry": {"type": "Point", "coordinates": [-0.228368, 5.604075]}, "properties": {"id": "osm_n2148021148", "name": "Vaidhehis Nursery School"}}, {"type": "Feature", "geometry": {"type": "Point", "coordinates": [-0.012674, 5.665171]}, "properties": {"id": "osm_n2150915849", "name": "Datus Complex School", "match": "both", "match_dist_m": 72.9, "match_name": "Datus Complex Schools", "name_sim": 1.0}}, {"type": "Feature", "geometry": {"type": "Point", "coordinates": [-0.012138, 5.648527]}, "properties": {"id": "osm_n2150915982", "name": "Tema First Baptist School"}}, {"type": "Feature", "geometry": {"type": "Point", "coordinates": [-0.108381, 5.591329]}, "properties": {"id": "osm_n2151945180", "name": "Unknown", "match": "both", "match_dist_m": 69.1, "match_name": "Teshie Krobo School", "name_sim": 0.154}}, {"type": "Feature", "geometry": {"type": "Point", "coordinates": [-0.080155, 5.595454]}, "properties": {"id": "osm_n2151945263", "name": "Unknown"}}, {"type": "Feature", "geometry": {"type": "Point", "coordinates": [-0.205214, 5.70006]}, "properties": {"id": "osm_n2152138363", "name": "Ahmadiya School"}}, {"type": "Feature", "geometry": {"type": "Point", "coordinates": [-0.148355, 5.703698]}, "properties": {"id": "osm_n2152138369", "name": "DeYoungsters School", "match": "both", "match_dist_m": 214.6, "match_name": "Golden Sunbeam Montessori School", "name_sim": 0.549}}, {"type": "Feature", "geometry": {"type": "Point", "coordinates": [-1.000398, 5.87795]}, "properties": {"id": "osm_n2152963078", "name": "St. Michael School"}}, {"type": "Feature", "geometry": {"type": "Point", "coordinates": [-0.17139, 5.697346]}, "properties": {"id": "osm_n2154259334", "name": "Tot to Teen"}}, {"type": "Feature", "geometry": {"type": "Point", "coordinates": [-0.056473, 5.847278]}, "properties": {"id": "osm_n2154260219", "name": "Ghana International High School"}}, {"type": "Feature", "geometry": {"type": "Point", "coordinates": [-0.099284, 5.882597]}, "properties": {"id": "osm_n2154260413", "name": "Unknown"}}, {"type": "Feature", "geometry": {"type": "Point", "coordinates": [-0.09318, 5.883028]}, "properties": {"id": "osm_n2154260419", "name": "Unknown", "match": "both", "match_dist_m": 53.4, "match_name": "Faith Bible Theological College International", "name_sim": 0.154}}, {"type": "Feature", "geometry": {"type": "Point", "coordinates": [-0.146192, 5.91087]}, "properties": {"id": "osm_n2154260499", "name": "Unknown"}}, {"type": "Feature", "geometry": {"type": "Point", "coordinates": [-0.069377, 5.938622]}, "properties": {"id": "osm_n2154260701", "name": "Unknown"}}, {"type": "Feature", "geometry": {"type": "Point", "coordinates": [-1.680532, 6.203424]}, "properties": {"id": "osm_n2159240552", "name": "Awurade Base Primary School"}}, {"type": "Feature", "geometry": {"type": "Point", "coordinates": [-1.679396, 6.203009]}, "properties": {"id": "osm_n2159240560", "name": "Kwabena Fori School"}}, {"type": "Feature", "geometry": {"type": "Point", "coordinates": [-1.675219, 6.205458]}, "properties": {"id": "osm_n2159240566", "name": "Presby Primary School"}}, {"type": "Feature", "geometry": {"type": "Point", "coordinates": [-0.559066, 6.157361]}, "properties": {"id": "osm_n2161108773", "name": "Kibi Secondary School"}}, {"type": "Feature", "geometry": {"type": "Point", "coordinates": [-0.588632, 6.322306]}, "properties": {"id": "osm_n2161442865", "name": "Primary School"}}, {"type": "Feature", "geometry": {"type": "Point", "coordinates": [0.478074, 6.592734]}, "properties": {"id": "osm_n2162646534", "name": "Dora Memorial School"}}, {"type": "Feature", "geometry": {"type": "Point", "coordinates": [0.696342, 6.547975]}, "properties": {"id": "osm_n2163283236", "name": "EP Primary School"}}, {"type": "Feature", "geometry": {"type": "Point", "coordinates": [-1.599289, 6.663016]}, "properties": {"id": "osm_n2167621802", "name": "Ahinsan Primary School"}}, {"type": "Feature", "geometry": {"type": "Point", "coordinates": [-1.589886, 6.658211]}, "properties": {"id": "osm_n2167621811", "name": "Atonsu Agogo Primary School"}}, {"type": "Feature", "geometry": {"type": "Point", "coordinates": [-1.574094, 6.648531]}, "properties": {"id": "osm_n2167623071", "name": "Ramseyer Institute"}}, {"type": "Feature", "geometry": {"type": "Point", "coordinates": [-1.615199, 6.664943]}, "properties": {"id": "osm_n2169660909", "name": "Adiebeba School", "match": "both", "match_dist_m": 90.3, "match_name": "Scales Adventist Preparatory School ", "name_sim": 0.48}}, {"type": "Feature", "geometry": {"type": "Point", "coordinates": [-2.385793, 6.979011]}, "properties": {"id": "osm_n2189770736", "name": "Catholic Junior High School"}}, {"type": "Feature", "geometry": {"type": "Point", "coordinates": [-2.390927, 6.983122]}, "properties": {"id": "osm_n2189770745", "name": "Methodist Primary School"}}, {"type": "Feature", "geometry": {"type": "Point", "coordinates": [-2.388106, 6.976351]}, "properties": {"id": "osm_n2189771722", "name": "Unknown"}}, {"type": "Feature", "geometry": {"type": "Point", "coordinates": [-2.406323, 6.994817]}, "properties": {"id": "osm_n2189771744", "name": "Reesettlement Junior High School"}}, {"type": "Feature", "geometry": {"type": "Point", "coordinates": [-2.304839, 7.336618]}, "properties": {"id": "osm_n2199502859", "name": "Business Senior High School"}}, {"type": "Feature", "geometry": {"type": "Point", "coordinates": [-2.323394, 7.358284]}, "properties": {"id": "osm_n2199502895", "name": "Unknown"}}, {"type": "Feature", "geometry": {"type": "Point", "coordinates": [-2.310074, 7.342377]}, "properties": {"id": "osm_n2199503510", "name": "Sacred Heart High School", "match": "both", "match_dist_m": 197.5, "match_name": "Gilberto Senior High School", "name_sim": 0.588}}, {"type": "Feature", "geometry": {"type": "Point", "coordinates": [0.001193, 6.128412]}, "properties": {"id": "osm_n2269298271", "name": "Kodjonya Millennium Presby Basic Schools"}}, {"type": "Feature", "geometry": {"type": "Point", "coordinates": [-0.865629, 10.80868]}, "properties": {"id": "osm_n2295811810", "name": "Akantome Junior High School", "level": "Secondary"}}, {"type": "Feature", "geometry": {"type": "Point", "coordinates": [-0.855092, 10.81116]}, "properties": {"id": "osm_n2295812215", "name": "Zaare Experimantal Primary School", "level": "Primary"}}, {"type": "Feature", "geometry": {"type": "Point", "coordinates": [-0.860955, 10.761381]}, "properties": {"id": "osm_n2295812218", "name": "Zamse Secondary Technical School"}}, {"type": "Feature", "geometry": {"type": "Point", "coordinates": [-0.945663, 10.801324]}, "properties": {"id": "osm_n2299731435", "name": "Yebongo"}}, {"type": "Feature", "geometry": {"type": "Point", "coordinates": [-1.081642, 10.873606]}, "properties": {"id": "osm_n2306716210", "name": "Unknown"}}, {"type": "Feature", "geometry": {"type": "Point", "coordinates": [-1.069611, 10.886129]}, "properties": {"id": "osm_n2306716271", "name": "St Mary's Junior High"}}, {"type": "Feature", "geometry": {"type": "Point", "coordinates": [0.471707, 7.154075]}, "properties": {"id": "osm_n2319479418", "name": "St. Joseph's JHS School Complex"}}, {"type": "Feature", "geometry": {"type": "Point", "coordinates": [0.472222, 7.152297]}, "properties": {"id": "osm_n2319479996", "name": "St. joseph's Primary School Complex"}}, {"type": "Feature", "geometry": {"type": "Point", "coordinates": [0.470033, 7.155152]}, "properties": {"id": "osm_n2319482816", "name": "Holy Rosary Primary And Junior High School Complex"}}, {"type": "Feature", "geometry": {"type": "Point", "coordinates": [0.474473, 7.156065]}, "properties": {"id": "osm_n2319511745", "name": "E.P. Junior High School"}}, {"type": "Feature", "geometry": {"type": "Point", "coordinates": [0.476178, 7.156438]}, "properties": {"id": "osm_n2319518099", "name": "E.P. Primary School (A)"}}, {"type": "Feature", "geometry": {"type": "Point", "coordinates": [0.476012, 7.157149]}, "properties": {"id": "osm_n2319518770", "name": "E.P. Primary School (B)"}}, {"type": "Feature", "geometry": {"type": "Point", "coordinates": [0.481299, 7.154458]}, "properties": {"id": "osm_n2319562072", "name": "Gbi Primary And JHS(Boys School)"}}, {"type": "Feature", "geometry": {"type": "Point", "coordinates": [0.48864, 7.157183]}, "properties": {"id": "osm_n2319566155", "name": "St. Francis Demonstration", "match": "both", "match_dist_m": 172.1, "match_name": "St Francis College of Education", "name_sim": 0.618}}, {"type": "Feature", "geometry": {"type": "Point", "coordinates": [0.477509, 7.146807]}, "properties": {"id": "osm_n2319571112", "name": "Musama School"}}, {"type": "Feature", "geometry": {"type": "Point", "coordinates": [0.470087, 7.14914]}, "properties": {"id": "osm_n2319589305", "name": "M/A Experimental schools(Primary And JHS)"}}, {"type": "Feature", "geometry": {"type": "Point", "coordinates": [0.466002, 7.147802]}, "properties": {"id": "osm_n2319595221", "name": "St. Agatha's Commercial School"}}, {"type": "Feature", "geometry": {"type": "Point", "coordinates": [0.466882, 7.157048]}, "properties": {"id": "osm_n2319599188", "name": "A.M.E. Zion Basic Schools"}}, {"type": "Feature", "geometry": {"type": "Point", "coordinates": [0.457623, 7.158756]}, "properties": {"id": "osm_n2319605646", "name": "Orphanage School"}}, {"type": "Feature", "geometry": {"type": "Point", "coordinates": [-0.246846, 11.061545]}, "properties": {"id": "osm_n2330378599", "name": "Gingande Primary"}}, {"type": "Feature", "geometry": {"type": "Point", "coordinates": [-0.25369, 11.057176]}, "properties": {"id": "osm_n2330378602", "name": "Methodist Junior High School"}}, {"type": "Feature", "geometry": {"type": "Point", "coordinates": [-0.231789, 11.061635]}, "properties": {"id": "osm_n2330379562", "name": "Unknown"}}, {"type": "Feature", "geometry": {"type": "Point", "coordinates": [-0.24479, 11.065727]}, "properties": {"id": "osm_n2330379903", "name": "Saint Anthony Primary School"}}, {"type": "Feature", "geometry": {"type": "Point", "coordinates": [-0.232324, 11.063092]}, "properties": {"id": "osm_n2330379915", "name": "Urban Council Primary School"}}, {"type": "Feature", "geometry": {"type": "Point", "coordinates": [-0.231561, 11.063231]}, "properties": {"id": "osm_n2330379917", "name": "Winamzoa Primary School"}}, {"type": "Feature", "geometry": {"type": "Point", "coordinates": [-0.618151, 10.465592]}, "properties": {"id": "osm_n2379575379", "name": "Samni Junior Highschool"}}, {"type": "Feature", "geometry": {"type": "Point", "coordinates": [-0.363763, 10.524496]}, "properties": {"id": "osm_n2379575393", "name": "Naasheriga Junior High School"}}, {"type": "Feature", "geometry": {"type": "Point", "coordinates": [-0.366751, 10.520118]}, "properties": {"id": "osm_n2379575396", "name": "Unknown"}}, {"type": "Feature", "geometry": {"type": "Point", "coordinates": [-0.275054, 5.577026]}, "properties": {"id": "osm_n2400546399", "name": "Ideal College"}}, {"type": "Feature", "geometry": {"type": "Point", "coordinates": [-0.015643, 5.659219]}, "properties": {"id": "osm_n2406182496", "name": "Old MTC, Tema"}}, {"type": "Feature", "geometry": {"type": "Point", "coordinates": [-0.869092, 9.450811]}, "properties": {"id": "osm_n2408059324", "name": "Drumming Classes"}}, {"type": "Feature", "geometry": {"type": "Point", "coordinates": [-0.66749, 5.449047]}, "properties": {"id": "osm_n2416084696", "name": "Awomberew D.A. Basic School"}}, {"type": "Feature", "geometry": {"type": "Point", "coordinates": [-0.867334, 9.427187]}, "properties": {"id": "osm_n2509301553", "name": "Institute for Educational Development and Extention"}}, {"type": "Feature", "geometry": {"type": "Point", "coordinates": [-0.860563, 9.417446]}, "properties": {"id": "osm_n2509301554", "name": "Institute of Languages"}}, {"type": "Feature", "geometry": {"type": "Point", "coordinates": [-0.862024, 9.422678]}, "properties": {"id": "osm_n2509301558", "name": "Tamale Senior High School", "match": "both", "match_dist_m": 203.2, "match_name": "Tamale College of Education", "name_sim": 0.5}}, {"type": "Feature", "geometry": {"type": "Point", "coordinates": [-0.857267, 9.427009]}, "properties": {"id": "osm_n2509309040", "name": "Ibn Taimmiya E/A Primary School"}}, {"type": "Feature", "geometry": {"type": "Point", "coordinates": [-0.855521, 9.428692]}, "properties": {"id": "osm_n2509331668", "name": "Morning Star Integrated School"}}, {"type": "Feature", "geometry": {"type": "Point", "coordinates": [-0.855011, 9.422235]}, "properties": {"id": "osm_n2509338891", "name": "Choggu Demostration Primary School \"A\""}}, {"type": "Feature", "geometry": {"type": "Point", "coordinates": [-0.855365, 9.422579]}, "properties": {"id": "osm_n2509338892", "name": "Choggu Demostration Primary School \"B\""}}, {"type": "Feature", "geometry": {"type": "Point", "coordinates": [-0.85555, 9.421833]}, "properties": {"id": "osm_n2509338893", "name": "Choggu Demostration Junior High School"}}, {"type": "Feature", "geometry": {"type": "Point", "coordinates": [0.331312, 8.469565]}, "properties": {"id": "osm_n2515050557", "name": "Jumbo Primary School", "level": "Primary"}}, {"type": "Feature", "geometry": {"type": "Point", "coordinates": [-0.722212, 9.890505]}, "properties": {"id": "osm_n2515536109", "name": "Unknown"}}, {"type": "Feature", "geometry": {"type": "Point", "coordinates": [-0.721928, 9.890822]}, "properties": {"id": "osm_n2515536692", "name": "Unknown"}}, {"type": "Feature", "geometry": {"type": "Point", "coordinates": [-0.722296, 9.891007]}, "properties": {"id": "osm_n2515537304", "name": "Unknown"}}, {"type": "Feature", "geometry": {"type": "Point", "coordinates": [-0.543528, 9.937787]}, "properties": {"id": "osm_n2515581081", "name": "Sung School"}}, {"type": "Feature", "geometry": {"type": "Point", "coordinates": [-1.936875, 7.578354]}, "properties": {"id": "osm_n2517028052", "name": "Techiman Primary School"}}, {"type": "Feature", "geometry": {"type": "Point", "coordinates": [-0.818616, 9.753027]}, "properties": {"id": "osm_n2520840448", "name": "Upper Primary"}}, {"type": "Feature", "geometry": {"type": "Point", "coordinates": [-0.81867, 9.752836]}, "properties": {"id": "osm_n2520840453", "name": "Lower Primary"}}, {"type": "Feature", "geometry": {"type": "Point", "coordinates": [-0.81963, 9.753222]}, "properties": {"id": "osm_n2520840458", "name": "Teachers' Quarters"}}, {"type": "Feature", "geometry": {"type": "Point", "coordinates": [-0.822582, 9.747074]}, "properties": {"id": "osm_n2520840479", "name": "Junior High"}}, {"type": "Feature", "geometry": {"type": "Point", "coordinates": [-0.823054, 9.747045]}, "properties": {"id": "osm_n2520840484", "name": "Upper Primary"}}, {"type": "Feature", "geometry": {"type": "Point", "coordinates": [-0.823097, 9.747616]}, "properties": {"id": "osm_n2520840489", "name": "Lower Primary"}}, {"type": "Feature", "geometry": {"type": "Point", "coordinates": [-0.823094, 9.746593]}, "properties": {"id": "osm_n2520840499", "name": "Teachers' Quarters"}}, {"type": "Feature", "geometry": {"type": "Point", "coordinates": [-0.935601, 9.803875]}, "properties": {"id": "osm_n2520964243", "name": "Dipale Primary School"}}, {"type": "Feature", "geometry": {"type": "Point", "coordinates": [-0.860526, 9.805585]}, "properties": {"id": "osm_n2520964246", "name": "Gushie Primary School"}}, {"type": "Feature", "geometry": {"type": "Point", "coordinates": [-0.860805, 9.805363]}, "properties": {"id": "osm_n2520964247", "name": "Teachers' Quarters"}}, {"type": "Feature", "geometry": {"type": "Point", "coordinates": [-0.870899, 9.879898]}, "properties": {"id": "osm_n2520983376", "name": "Diare Junior High School A"}}, {"type": "Feature", "geometry": {"type": "Point", "coordinates": [-0.871073, 9.859502]}, "properties": {"id": "osm_n2520985104", "name": "Diare Junior High School B"}}, {"type": "Feature", "geometry": {"type": "Point", "coordinates": [-0.770074, 9.816576]}, "properties": {"id": "osm_n2520992641", "name": "Maligunaayili Lower Primary School"}}, {"type": "Feature", "geometry": {"type": "Point", "coordinates": [-0.77322, 9.81582]}, "properties": {"id": "osm_n2520992642", "name": "Maligunaayili Kindergartend"}}, {"type": "Feature", "geometry": {"type": "Point", "coordinates": [-0.888454, 10.897127]}, "properties": {"id": "osm_n2526128417", "name": "Zorko JHS"}}, {"type": "Feature", "geometry": {"type": "Point", "coordinates": [-0.89616, 10.874007]}, "properties": {"id": "osm_n2526128955", "name": "Unknown"}}, {"type": "Feature", "geometry": {"type": "Point", "coordinates": [-0.719522, 9.894686]}, "properties": {"id": "osm_n2543526015", "name": "Arabic School"}}, {"type": "Feature", "geometry": {"type": "Point", "coordinates": [0.053425, 6.285126]}, "properties": {"id": "osm_n2581068691", "name": "Akosombo Internationa School"}}, {"type": "Feature", "geometry": {"type": "Point", "coordinates": [-0.011025, 5.630104]}, "properties": {"id": "osm_n2622097835", "name": "Mexico Junior High School"}}, {"type": "Feature", "geometry": {"type": "Point", "coordinates": [-0.205579, 5.546631]}, "properties": {"id": "osm_n2926170809", "name": "Ghana School of Law"}}, {"type": "Feature", "geometry": {"type": "Point", "coordinates": [-0.443914, 5.560005]}, "properties": {"id": "osm_n3032289146", "name": "Unknown"}}, {"type": "Feature", "geometry": {"type": "Point", "coordinates": [-0.430919, 5.56341]}, "properties": {"id": "osm_n3032399087", "name": "Unknown"}}, {"type": "Feature", "geometry": {"type": "Point", "coordinates": [-0.208802, 5.588273]}, "properties": {"id": "osm_n3070233530", "name": "Golden Mission International School"}}, {"type": "Feature", "geometry": {"type": "Point", "coordinates": [-0.260352, 5.603212]}, "properties": {"id": "osm_n3103580198", "name": "Crown Prince"}}, {"type": "Feature", "geometry": {"type": "Point", "coordinates": [-1.67039, 6.66791]}, "properties": {"id": "osm_n3121241763", "name": "P and G High School"}}, {"type": "Feature", "geometry": {"type": "Point", "coordinates": [-1.671267, 6.666462]}, "properties": {"id": "osm_n3121241764", "name": "Aburaso Methodist Primary school"}}, {"type": "Feature", "geometry": {"type": "Point", "coordinates": [-0.245635, 5.587468]}, "properties": {"id": "osm_n3123797168", "name": "Abibiman Complex School"}}, {"type": "Feature", "geometry": {"type": "Point", "coordinates": [-0.240046, 5.586014]}, "properties": {"id": "osm_n3133712042", "name": "Cables & Wireless Cluster of Schools"}}, {"type": "Feature", "geometry": {"type": "Point", "coordinates": [-1.62967, 6.709756]}, "properties": {"id": "osm_n3146487456", "name": "State Boys Primary and JHS"}}, {"type": "Feature", "geometry": {"type": "Point", "coordinates": [1.184565, 6.122789]}, "properties": {"id": "osm_n3188233282", "name": "Unknown"}}, {"type": "Feature", "geometry": {"type": "Point", "coordinates": [-0.266707, 5.558508]}, "properties": {"id": "osm_n3218120062", "name": "Christian Home School"}}, {"type": "Feature", "geometry": {"type": "Point", "coordinates": [-0.554687, 10.411983]}, "properties": {"id": "osm_n3220651504", "name": "Unknown"}}, {"type": "Feature", "geometry": {"type": "Point", "coordinates": [-1.975818, 5.317544]}, "properties": {"id": "osm_n3236101689", "name": "New Atuabo Basic School Complex"}}, {"type": "Feature", "geometry": {"type": "Point", "coordinates": [-1.993288, 5.296062]}, "properties": {"id": "osm_n3243127721", "name": "Amo Basic School"}}, {"type": "Feature", "geometry": {"type": "Point", "coordinates": [0.796607, 6.130905]}, "properties": {"id": "osm_n3253512714", "name": "Unknown"}}, {"type": "Feature", "geometry": {"type": "Point", "coordinates": [0.80831, 6.117499]}, "properties": {"id": "osm_n3299103309", "name": "Unknown"}}, {"type": "Feature", "geometry": {"type": "Point", "coordinates": [0.990601, 5.918367]}, "properties": {"id": "osm_n3303368847", "name": "Unknown"}}, {"type": "Feature", "geometry": {"type": "Point", "coordinates": [-0.16005, 5.629552]}, "properties": {"id": "osm_n3357013338", "name": "Al-Rayan International School", "match": "both", "match_dist_m": 15.1, "match_name": "Al-Rayan International School", "name_sim": 1.0}}, {"type": "Feature", "geometry": {"type": "Point", "coordinates": [0.900241, 5.792497]}, "properties": {"id": "osm_n3464354328", "name": "Unknown"}}, {"type": "Feature", "geometry": {"type": "Point", "coordinates": [-0.272606, 5.679624]}, "properties": {"id": "osm_n3496547021", "name": "The Intellectuals School"}}, {"type": "Feature", "geometry": {"type": "Point", "coordinates": [0.471275, 7.156623]}, "properties": {"id": "osm_n3500174721", "name": "Christ Shalom Preparatory School"}}, {"type": "Feature", "geometry": {"type": "Point", "coordinates": [-0.016121, 5.666285]}, "properties": {"id": "osm_n3621687506", "name": "Deks Educational Institute", "match": "both", "match_dist_m": 113.9, "match_name": "DEKS Educational Institute", "name_sim": 1.0}}, {"type": "Feature", "geometry": {"type": "Point", "coordinates": [-0.038492, 5.68162]}, "properties": {"id": "osm_n3648759945", "name": "Presbyterian Primary School"}}, {"type": "Feature", "geometry": {"type": "Point", "coordinates": [-0.039982, 5.679867]}, "properties": {"id": "osm_n3648759946", "name": "Unknown"}}, {"type": "Feature", "geometry": {"type": "Point", "coordinates": [-0.187011, 5.565408]}, "properties": {"id": "osm_n3665190016", "name": "Osu Ringway Estate Basic School - GES Model School"}}, {"type": "Feature", "geometry": {"type": "Point", "coordinates": [-0.25916, 5.557343]}, "properties": {"id": "osm_n3676307200", "name": "Step-by-Step School"}}, {"type": "Feature", "geometry": {"type": "Point", "coordinates": [-1.822529, 4.891127]}, "properties": {"id": "osm_n3681426826", "name": "Arbtur Fischer Catholic Primary and Junior High School"}}, {"type": "Feature", "geometry": {"type": "Point", "coordinates": [0.661832, 6.020041]}, "properties": {"id": "osm_n3688118052", "name": "Dabala Junction Basic School"}}, {"type": "Feature", "geometry": {"type": "Point", "coordinates": [-0.164524, 5.666986]}, "properties": {"id": "osm_n3722374904", "name": "Unknown"}}, {"type": "Feature", "geometry": {"type": "Point", "coordinates": [-0.531446, 6.369659]}, "properties": {"id": "osm_n3731304736", "name": "S.D.A. Presparatory School"}}, {"type": "Feature", "geometry": {"type": "Point", "coordinates": [-0.242529, 5.547395]}, "properties": {"id": "osm_n3740288022", "name": "Unknown"}}, {"type": "Feature", "geometry": {"type": "Point", "coordinates": [-1.758648, 4.898301]}, "properties": {"id": "osm_n3781008079", "name": "All Saint Parish School", "match": "both", "match_dist_m": 114.5, "match_name": "Naval Base Basic School", "name_sim": 0.565}}, {"type": "Feature", "geometry": {"type": "Point", "coordinates": [-1.759987, 4.894434]}, "properties": {"id": "osm_n3782612113", "name": "Bethel Methodist School"}}, {"type": "Feature", "geometry": {"type": "Point", "coordinates": [-1.756152, 4.901794]}, "properties": {"id": "osm_n3782641298", "name": "Roman JHS"}}, {"type": "Feature", "geometry": {"type": "Point", "coordinates": [-1.760163, 4.891717]}, "properties": {"id": "osm_n3782683230", "name": "Axim Road JHS"}}, {"type": "Feature", "geometry": {"type": "Point", "coordinates": [-2.001135, 5.282325]}, "properties": {"id": "osm_n3793281504", "name": "New Apple International Language School"}}, {"type": "Feature", "geometry": {"type": "Point", "coordinates": [0.315289, 6.601133]}, "properties": {"id": "osm_n3793455576", "name": "Avenui Methodist Primary School"}}, {"type": "Feature", "geometry": {"type": "Point", "coordinates": [0.315604, 6.60324]}, "properties": {"id": "osm_n3793455578", "name": "Awudome Vocational Training Institute"}}, {"type": "Feature", "geometry": {"type": "Point", "coordinates": [0.338901, 6.648912]}, "properties": {"id": "osm_n3793455579", "name": "E.P. Basic Schools"}}, {"type": "Feature", "geometry": {"type": "Point", "coordinates": [0.38513, 6.731967]}, "properties": {"id": "osm_n3793455580", "name": "E.P. Basic Schools"}}, {"type": "Feature", "geometry": {"type": "Point", "coordinates": [0.416244, 6.774007]}, "properties": {"id": "osm_n3793455586", "name": "Saviefe Deme Schools"}}, {"type": "Feature", "geometry": {"type": "Point", "coordinates": [0.439481, 6.997155]}, "properties": {"id": "osm_n3801131057", "name": "Local Authority Junior Secondary"}}, {"type": "Feature", "geometry": {"type": "Point", "coordinates": [0.437005, 6.903509]}, "properties": {"id": "osm_n3802640770", "name": "Modern Brains Academy Preparatory School"}}, {"type": "Feature", "geometry": {"type": "Point", "coordinates": [0.458645, 6.963644]}, "properties": {"id": "osm_n3802641881", "name": "Ve Gbodome Primary School"}}, {"type": "Feature", "geometry": {"type": "Point", "coordinates": [0.371324, 6.798179]}, "properties": {"id": "osm_n3802723684", "name": "Nyagbo Odumase Basic Schools"}}, {"type": "Feature", "geometry": {"type": "Point", "coordinates": [0.393255, 6.849136]}, "properties": {"id": "osm_n3802723685", "name": "Tafi Agome Basic School"}}, {"type": "Feature", "geometry": {"type": "Point", "coordinates": [-1.986315, 5.307868]}, "properties": {"id": "osm_n3815384194", "name": "Tarkwa Midwifery Training School"}}, {"type": "Feature", "geometry": {"type": "Point", "coordinates": [-1.143814, 5.167573]}, "properties": {"id": "osm_n3819267397", "name": "AIMS Ghana"}}, {"type": "Feature", "geometry": {"type": "Point", "coordinates": [-1.205292, 5.15213]}, "properties": {"id": "osm_n3819267403", "name": "Sammo Senior High School, Cape Coast"}}, {"type": "Feature", "geometry": {"type": "Point", "coordinates": [-1.685793, 4.98777]}, "properties": {"id": "osm_n3819267404", "name": "Sekondi School for the Deaf"}}, {"type": "Feature", "geometry": {"type": "Point", "coordinates": [-0.390683, 5.513519]}, "properties": {"id": "osm_n3830300481", "name": "Fayef International School", "match": "both", "match_dist_m": 196.5, "match_name": "Father's Legacy Int'l School", "name_sim": 0.556}}, {"type": "Feature", "geometry": {"type": "Point", "coordinates": [-0.386823, 5.530654]}, "properties": {"id": "osm_n3830300484", "name": "New Convent Academy"}}, {"type": "Feature", "geometry": {"type": "Point", "coordinates": [-0.387678, 5.526911]}, "properties": {"id": "osm_n3830300486", "name": "Sheperdo Preparatory School"}}, {"type": "Feature", "geometry": {"type": "Point", "coordinates": [-0.383299, 5.538054]}, "properties": {"id": "osm_n3830300487", "name": "Stockwell Montessori School"}}, {"type": "Feature", "geometry": {"type": "Point", "coordinates": [-0.194757, 5.575926]}, "properties": {"id": "osm_n3837950397", "name": "Aggrey Memorial International School"}}, {"type": "Feature", "geometry": {"type": "Point", "coordinates": [-0.202612, 5.58123]}, "properties": {"id": "osm_n3848970819", "name": "Mount Zion Basic School", "match": "both", "match_dist_m": 9.0, "match_name": "Mount Zion Basic School", "name_sim": 1.0}}, {"type": "Feature", "geometry": {"type": "Point", "coordinates": [0.863297, 6.058413]}, "properties": {"id": "osm_n3916319599", "name": "Abor E.P. School"}}, {"type": "Feature", "geometry": {"type": "Point", "coordinates": [-1.640596, 5.011092]}, "properties": {"id": "osm_n3939618557", "name": "Integrated Community Center for Employable Skills"}}, {"type": "Feature", "geometry": {"type": "Point", "coordinates": [-0.200718, 5.594027]}, "properties": {"id": "osm_n3950017300", "name": "Dannaks Senior High School", "match": "both", "match_dist_m": 37.9, "match_name": "B.O.D Basic School", "name_sim": 0.5}}, {"type": "Feature", "geometry": {"type": "Point", "coordinates": [-0.205007, 5.595962]}, "properties": {"id": "osm_n3950017305", "name": "Neupert School"}}, {"type": "Feature", "geometry": {"type": "Point", "coordinates": [0.796874, 6.135313]}, "properties": {"id": "osm_n3952728945", "name": "Unknown"}}, {"type": "Feature", "geometry": {"type": "Point", "coordinates": [1.027461, 5.979774]}, "properties": {"id": "osm_n3960375611", "name": "AME Zion Basic Schools"}}, {"type": "Feature", "geometry": {"type": "Point", "coordinates": [-0.200086, 5.602166]}, "properties": {"id": "osm_n3961469676", "name": "Bright Brains International Academy", "match": "both", "match_dist_m": 74.6, "match_name": "VICAT Accounting and Taxation Training Institute", "name_sim": 0.41}}, {"type": "Feature", "geometry": {"type": "Point", "coordinates": [-0.210859, 5.592952]}, "properties": {"id": "osm_n3961469678", "name": "Dzokson Business College"}}, {"type": "Feature", "geometry": {"type": "Point", "coordinates": [-0.209222, 5.592012]}, "properties": {"id": "osm_n3961469681", "name": "Jerusalem Basic School", "match": "both", "match_dist_m": 5.4, "match_name": "El Leroy Academy", "name_sim": 0.263}}, {"type": "Feature", "geometry": {"type": "Point", "coordinates": [-0.210833, 5.594152]}, "properties": {"id": "osm_n3961469684", "name": "Teacher Adam Memorial School"}}, {"type": "Feature", "geometry": {"type": "Point", "coordinates": [-0.095059, 5.604441]}, "properties": {"id": "osm_n3985330211", "name": "Unknown"}}, {"type": "Feature", "geometry": {"type": "Point", "coordinates": [-0.097585, 5.599769]}, "properties": {"id": "osm_n3985333158", "name": "Teshie Estate Preparatory School (TEPS)"}}, {"type": "Feature", "geometry": {"type": "Point", "coordinates": [-0.089426, 5.599198]}, "properties": {"id": "osm_n3985379657", "name": "Hill Top Preparatory School"}}, {"type": "Feature", "geometry": {"type": "Point", "coordinates": [-0.017495, 9.44479]}, "properties": {"id": "osm_n3997291245", "name": "Unknown"}}, {"type": "Feature", "geometry": {"type": "Point", "coordinates": [-1.834912, 9.047544]}, "properties": {"id": "osm_n4005792839", "name": "Saint Anne's School"}}, {"type": "Feature", "geometry": {"type": "Point", "coordinates": [-0.148014, 5.637524]}, "properties": {"id": "osm_n4018362075", "name": "Queen's International School", "match": "both", "match_dist_m": 17.7, "match_name": "Queens International", "name_sim": 0.833}}, {"type": "Feature", "geometry": {"type": "Point", "coordinates": [-0.431852, 5.534205]}, "properties": {"id": "osm_n4037240689", "name": "Bishop Mc Calla Preparatory JHS"}}, {"type": "Feature", "geometry": {"type": "Point", "coordinates": [-1.07649, 5.201556]}, "properties": {"id": "osm_n4037255589", "name": "Komantse Methodist JHS"}}, {"type": "Feature", "geometry": {"type": "Point", "coordinates": [-1.98691, 5.311012]}, "properties": {"id": "osm_n4040949623", "name": "Tarkwa John Taylor School"}}, {"type": "Feature", "geometry": {"type": "Point", "coordinates": [-2.013195, 5.230942]}, "properties": {"id": "osm_n4040955972", "name": "Ahwitieso Roman Catholic Basic Schools"}}, {"type": "Feature", "geometry": {"type": "Point", "coordinates": [-1.771421, 4.893359]}, "properties": {"id": "osm_n4055644107", "name": "Ghana Air Force Schools"}}, {"type": "Feature", "geometry": {"type": "Point", "coordinates": [-0.218954, 5.598018]}, "properties": {"id": "osm_n4056390485", "name": "E-Language Laboratory"}}, {"type": "Feature", "geometry": {"type": "Point", "coordinates": [-1.38486, 6.793927]}, "properties": {"id": "osm_n4065582437", "name": "Junior High School - JHS"}}, {"type": "Feature", "geometry": {"type": "Point", "coordinates": [-0.230956, 5.591678]}, "properties": {"id": "osm_n4067018120", "name": "Ann's Preparatory JSS"}}, {"type": "Feature", "geometry": {"type": "Point", "coordinates": [-2.714065, 10.402795]}, "properties": {"id": "osm_n4092451845", "name": "Yiziiri Primary School"}}, {"type": "Feature", "geometry": {"type": "Point", "coordinates": [-0.697399, 5.537919]}, "properties": {"id": "osm_n4099225974", "name": "31st D.W.M. Pre and Preperatory School"}}, {"type": "Feature", "geometry": {"type": "Point", "coordinates": [-0.690196, 5.522411]}, "properties": {"id": "osm_n4099362164", "name": "Swedru Happy Home School (SWEHAPS)"}}, {"type": "Feature", "geometry": {"type": "Point", "coordinates": [-0.69791, 5.538087]}, "properties": {"id": "osm_n4099387141", "name": "Church of Christ Preperatory School"}}, {"type": "Feature", "geometry": {"type": "Point", "coordinates": [-0.712044, 5.531484]}, "properties": {"id": "osm_n4099553159", "name": "Swedru Angelican Primary School"}}, {"type": "Feature", "geometry": {"type": "Point", "coordinates": [-0.709068, 5.530877]}, "properties": {"id": "osm_n4101947564", "name": "Agona District D Assembly School"}}, {"type": "Feature", "geometry": {"type": "Point", "coordinates": [-0.185751, 5.56882]}, "properties": {"id": "osm_n4104619077", "name": "Fountain of Youth International"}}, {"type": "Feature", "geometry": {"type": "Point", "coordinates": [-0.773253, 6.607796]}, "properties": {"id": "osm_n4148666865", "name": "Unknown"}}, {"type": "Feature", "geometry": {"type": "Point", "coordinates": [-0.777125, 6.600768]}, "properties": {"id": "osm_n4149635364", "name": "St. Paul's Anglican Primary School"}}, {"type": "Feature", "geometry": {"type": "Point", "coordinates": [-0.007853, 5.645777]}, "properties": {"id": "osm_n4156627369", "name": "St. Pauls Junior High School"}}, {"type": "Feature", "geometry": {"type": "Point", "coordinates": [-0.208509, 5.572739]}, "properties": {"id": "osm_n4157336041", "name": "Bluecrest College", "match": "both", "match_dist_m": 36.1, "match_name": "Debest College", "name_sim": 0.774}}, {"type": "Feature", "geometry": {"type": "Point", "coordinates": [-0.202787, 5.56959]}, "properties": {"id": "osm_n4157336044", "name": "Mercy School", "match": "both", "match_dist_m": 44.9, "match_name": "Marshalls University College", "name_sim": 0.4}}, {"type": "Feature", "geometry": {"type": "Point", "coordinates": [-0.211817, 5.571778]}, "properties": {"id": "osm_n4157336046", "name": "Springwell School"}}, {"type": "Feature", "geometry": {"type": "Point", "coordinates": [-1.347545, 5.271958]}, "properties": {"id": "osm_n4161230962", "name": "Unknown"}}, {"type": "Feature", "geometry": {"type": "Point", "coordinates": [-1.392139, 5.102919]}, "properties": {"id": "osm_n4161815114", "name": "Gewas Senior High Technical School"}}, {"type": "Feature", "geometry": {"type": "Point", "coordinates": [-0.184217, 6.12526]}, "properties": {"id": "osm_n4167509944", "name": "Unknown"}}, {"type": "Feature", "geometry": {"type": "Point", "coordinates": [-0.036615, 6.042336]}, "properties": {"id": "osm_n4167516256", "name": "Jan van Ieperen"}}, {"type": "Feature", "geometry": {"type": "Point", "coordinates": [-0.154272, 6.120498]}, "properties": {"id": "osm_n4167518591", "name": "Unknown"}}, {"type": "Feature", "geometry": {"type": "Point", "coordinates": [-0.197957, 6.125576]}, "properties": {"id": "osm_n4167518701", "name": "Presbyterian Primary School"}}, {"type": "Feature", "geometry": {"type": "Point", "coordinates": [0.489055, 6.934793]}, "properties": {"id": "osm_n4182850464", "name": "Unknown"}}, {"type": "Feature", "geometry": {"type": "Point", "coordinates": [0.371844, 6.049879]}, "properties": {"id": "osm_n4183905314", "name": "Unknown"}}, {"type": "Feature", "geometry": {"type": "Point", "coordinates": [-0.948123, 9.313793]}, "properties": {"id": "osm_n4184127868", "name": "Modern Star School"}}, {"type": "Feature", "geometry": {"type": "Point", "coordinates": [-0.209553, 5.576413]}, "properties": {"id": "osm_n4184924489", "name": "John Haavad Primary & JHS"}}, {"type": "Feature", "geometry": {"type": "Point", "coordinates": [-0.167487, 5.642167]}, "properties": {"id": "osm_n4211404350", "name": "LA-Bawaleshie JHS & Primary School", "match": "both", "match_dist_m": 17.3, "match_name": "Bawleshi Primary and JHS School", "name_sim": 0.73}}, {"type": "Feature", "geometry": {"type": "Point", "coordinates": [-2.463111, 9.879639]}, "properties": {"id": "osm_n4215460910", "name": "Ponyentanga R/C JHS"}}, {"type": "Feature", "geometry": {"type": "Point", "coordinates": [-2.462998, 9.870708]}, "properties": {"id": "osm_n4215460918", "name": "Ponyentanga Day Nursery"}}, {"type": "Feature", "geometry": {"type": "Point", "coordinates": [0.029078, 7.052825]}, "properties": {"id": "osm_n4215466583", "name": "Amankwah R/C Primary School"}}, {"type": "Feature", "geometry": {"type": "Point", "coordinates": [0.030189, 7.052585]}, "properties": {"id": "osm_n4215466585", "name": "Amankwah R/C JHS"}}, {"type": "Feature", "geometry": {"type": "Point", "coordinates": [-2.25493, 6.356933]}, "properties": {"id": "osm_n4215477596", "name": "Adu Pri D/A Primary School"}}, {"type": "Feature", "geometry": {"type": "Point", "coordinates": [-2.255357, 6.356069]}, "properties": {"id": "osm_n4215477597", "name": "Adu Pri D/A JHS"}}, {"type": "Feature", "geometry": {"type": "Point", "coordinates": [-2.463006, 10.196877]}, "properties": {"id": "osm_n4215557118", "name": "Jaang D/A JHS"}}, {"type": "Feature", "geometry": {"type": "Point", "coordinates": [-2.463092, 10.198393]}, "properties": {"id": "osm_n4215557119", "name": "Jaang D/A Primary"}}, {"type": "Feature", "geometry": {"type": "Point", "coordinates": [-0.250105, 5.617613]}, "properties": {"id": "osm_n4215659047", "name": "Unknown"}}, {"type": "Feature", "geometry": {"type": "Point", "coordinates": [-0.250665, 5.620288]}, "properties": {"id": "osm_n4216600894", "name": "Perpetual Help School"}}, {"type": "Feature", "geometry": {"type": "Point", "coordinates": [-0.248775, 5.622612]}, "properties": {"id": "osm_n4216607982", "name": "Family Life International School"}}, {"type": "Feature", "geometry": {"type": "Point", "coordinates": [-2.001324, 5.28259]}, "properties": {"id": "osm_n4217160879", "name": "Imperial College of Mines"}}, {"type": "Feature", "geometry": {"type": "Point", "coordinates": [-0.214303, 5.58353]}, "properties": {"id": "osm_n4225899684", "name": "Ahtoo Montesori School", "match": "both", "match_dist_m": 30.4, "match_name": "Ahtoo Montessori School", "name_sim": 0.978}}, {"type": "Feature", "geometry": {"type": "Point", "coordinates": [-0.212844, 5.582115]}, "properties": {"id": "osm_n4225899686", "name": "Kings College International", "match": "both", "match_dist_m": 7.3, "match_name": "Kings College International", "name_sim": 1.0}}, {"type": "Feature", "geometry": {"type": "Point", "coordinates": [-0.409716, 6.673331]}, "properties": {"id": "osm_n4243968701", "name": "Universal Preparatory School"}}, {"type": "Feature", "geometry": {"type": "Point", "coordinates": [-0.014438, 6.116698]}, "properties": {"id": "osm_n4244509756", "name": "Adjikpo Yokunya Roman Catholic School (Mount Mary College of Education demonstration school)", "match": "both", "match_dist_m": 219.4, "match_name": "Mount Mary College of Education", "name_sim": 0.512}}, {"type": "Feature", "geometry": {"type": "Point", "coordinates": [-2.14549, 5.434711]}, "properties": {"id": "osm_n4261592674", "name": "Catholic JHS"}}, {"type": "Feature", "geometry": {"type": "Point", "coordinates": [-2.142224, 5.436793]}, "properties": {"id": "osm_n4261592675", "name": "Experimental JHS"}}, {"type": "Feature", "geometry": {"type": "Point", "coordinates": [-2.144624, 5.432406]}, "properties": {"id": "osm_n4261592676", "name": "Methodist Basic Schools"}}, {"type": "Feature", "geometry": {"type": "Point", "coordinates": [0.473573, 6.5902]}, "properties": {"id": "osm_n4268473213", "name": "Victoria Memorial School"}}, {"type": "Feature", "geometry": {"type": "Point", "coordinates": [-0.041529, 5.689297]}, "properties": {"id": "osm_n4286137002", "name": "Vetsisco", "match": "both", "match_dist_m": 56.1, "match_name": "Nathaniel School Complex", "name_sim": 0.25}}, {"type": "Feature", "geometry": {"type": "Point", "coordinates": [-0.018148, 5.70685]}, "properties": {"id": "osm_n4286137017", "name": "Tema International School"}}, {"type": "Feature", "geometry": {"type": "Point", "coordinates": [-0.016068, 5.657344]}, "properties": {"id": "osm_n4286137018", "name": "ECG Training School"}}, {"type": "Feature", "geometry": {"type": "Point", "coordinates": [-0.044184, 5.697918]}, "properties": {"id": "osm_n4286153091", "name": "Agyiri Nyarko School Complex"}}, {"type": "Feature", "geometry": {"type": "Point", "coordinates": [-0.037824, 5.683174]}, "properties": {"id": "osm_n4286153290", "name": "Unknown", "match": "both", "match_dist_m": 66.2, "match_name": "Ashaiman Campus Institute", "name_sim": 0.125}}, {"type": "Feature", "geometry": {"type": "Point", "coordinates": [-0.015818, 5.705939]}, "properties": {"id": "osm_n4286157306", "name": "Salesian of Don Bosco"}}, {"type": "Feature", "geometry": {"type": "Point", "coordinates": [-0.041545, 5.68745]}, "properties": {"id": "osm_n4286159092", "name": "Roman Catholic Primary A& B"}}, {"type": "Feature", "geometry": {"type": "Point", "coordinates": [-0.041871, 5.696762]}, "properties": {"id": "osm_n4286159093", "name": "Unknown"}}, {"type": "Feature", "geometry": {"type": "Point", "coordinates": [-0.012125, 5.754912]}, "properties": {"id": "osm_n4286160190", "name": "Witsan, Gbetsile"}}, {"type": "Feature", "geometry": {"type": "Point", "coordinates": [-0.049984, 5.71212]}, "properties": {"id": "osm_n4286172889", "name": "Zenu KKDA School"}}, {"type": "Feature", "geometry": {"type": "Point", "coordinates": [-0.041213, 5.68699]}, "properties": {"id": "osm_n4286172994", "name": "Roman Catholic J. S. S"}}, {"type": "Feature", "geometry": {"type": "Point", "coordinates": [-0.042352, 5.688064]}, "properties": {"id": "osm_n4286172995", "name": "Solidarity School"}}, {"type": "Feature", "geometry": {"type": "Point", "coordinates": [-0.042474, 5.687461]}, "properties": {"id": "osm_n4286172996", "name": "SDA School"}}, {"type": "Feature", "geometry": {"type": "Point", "coordinates": [-0.045401, 5.691529]}, "properties": {"id": "osm_n4286172998", "name": "Benardette School"}}, {"type": "Feature", "geometry": {"type": "Point", "coordinates": [-0.044452, 5.690935]}, "properties": {"id": "osm_n4286172999", "name": "Camisco School", "match": "both", "match_dist_m": 50.6, "match_name": "Chief Alhassan Memorial Islamic School", "name_sim": 0.462}}, {"type": "Feature", "geometry": {"type": "Point", "coordinates": [-0.033223, 5.689629]}, "properties": {"id": "osm_n4286173005", "name": "Government No.3"}}, {"type": "Feature", "geometry": {"type": "Point", "coordinates": [-0.033737, 5.690215]}, "properties": {"id": "osm_n4286174390", "name": "St. Mary's School", "match": "both", "match_dist_m": 68.3, "match_name": "St Mary's International School", "name_sim": 1.0}}, {"type": "Feature", "geometry": {"type": "Point", "coordinates": [-1.767436, 4.89738]}, "properties": {"id": "osm_n4291858014", "name": "St. Ignatius RC School"}}, {"type": "Feature", "geometry": {"type": "Point", "coordinates": [-0.210674, 5.56544]}, "properties": {"id": "osm_n4305848486", "name": "All Saints Anglican Kindergarten"}}, {"type": "Feature", "geometry": {"type": "Point", "coordinates": [-0.209747, 5.565416]}, "properties": {"id": "osm_n4305848487", "name": "Baobab Academy"}}, {"type": "Feature", "geometry": {"type": "Point", "coordinates": [-0.099691, 5.690777]}, "properties": {"id": "osm_n4311940490", "name": "Cape Coast University Campus, Nmai Dzor"}}, {"type": "Feature", "geometry": {"type": "Point", "coordinates": [-0.12473, 5.677507]}, "properties": {"id": "osm_n4311940795", "name": "Canadian International School"}}, {"type": "Feature", "geometry": {"type": "Point", "coordinates": [-0.138606, 5.687404]}, "properties": {"id": "osm_n4311942089", "name": "New nation International School"}}, {"type": "Feature", "geometry": {"type": "Point", "coordinates": [-0.142303, 5.768169]}, "properties": {"id": "osm_n4313553900", "name": "Amrahia Community School"}}, {"type": "Feature", "geometry": {"type": "Point", "coordinates": [-0.044298, 5.694273]}, "properties": {"id": "osm_n4313556922", "name": "Bethel School"}}, {"type": "Feature", "geometry": {"type": "Point", "coordinates": [-0.045675, 5.693088]}, "properties": {"id": "osm_n4313556923", "name": "Life International School"}}, {"type": "Feature", "geometry": {"type": "Point", "coordinates": [-0.041961, 5.692796]}, "properties": {"id": "osm_n4313591620", "name": "Newland School"}}, {"type": "Feature", "geometry": {"type": "Point", "coordinates": [-0.017552, 5.676554]}, "properties": {"id": "osm_n4313597221", "name": "Redemption Valley No.1&2"}}, {"type": "Feature", "geometry": {"type": "Point", "coordinates": [-0.046587, 5.70878]}, "properties": {"id": "osm_n4313643799", "name": "Agape School Complex"}}, {"type": "Feature", "geometry": {"type": "Point", "coordinates": [-0.021074, 5.689496]}, "properties": {"id": "osm_n4313643800", "name": "Unknown"}}, {"type": "Feature", "geometry": {"type": "Point", "coordinates": [-0.030688, 5.693602]}, "properties": {"id": "osm_n4313644001", "name": "Unknown"}}, {"type": "Feature", "geometry": {"type": "Point", "coordinates": [-0.871838, 10.809204]}, "properties": {"id": "osm_n4315874827", "name": "Youth Harvest Foundation Ghana"}}, {"type": "Feature", "geometry": {"type": "Point", "coordinates": [-0.22542, 5.615178]}, "properties": {"id": "osm_n4316803033", "name": "Emando Memorial International School"}}, {"type": "Feature", "geometry": {"type": "Point", "coordinates": [-0.16273, 5.561257]}, "properties": {"id": "osm_n4324366290", "name": "St. Thomas primary and junior high school"}}, {"type": "Feature", "geometry": {"type": "Point", "coordinates": [-1.971952, 7.452635]}, "properties": {"id": "osm_n4327072593", "name": "Unknown"}}, {"type": "Feature", "geometry": {"type": "Point", "coordinates": [-1.971924, 7.451583]}, "properties": {"id": "osm_n4327072594", "name": "Presbyterian School"}}, {"type": "Feature", "geometry": {"type": "Point", "coordinates": [-1.972763, 7.455349]}, "properties": {"id": "osm_n4327072596", "name": "Unknown"}}, {"type": "Feature", "geometry": {"type": "Point", "coordinates": [-1.975205, 7.458446]}, "properties": {"id": "osm_n4327115055", "name": "Unknown"}}, {"type": "Feature", "geometry": {"type": "Point", "coordinates": [-1.994072, 5.300493]}, "properties": {"id": "osm_n4329531008", "name": "Unknown"}}, {"type": "Feature", "geometry": {"type": "Point", "coordinates": [-1.451505, 5.097456]}, "properties": {"id": "osm_n4332150591", "name": "Ayensudo MA Primary and JHS"}}, {"type": "Feature", "geometry": {"type": "Point", "coordinates": [-0.841996, 5.355331]}, "properties": {"id": "osm_n4333791301", "name": "Primary School"}}, {"type": "Feature", "geometry": {"type": "Point", "coordinates": [-0.842685, 5.355944]}, "properties": {"id": "osm_n4333791302", "name": "JHS"}}, {"type": "Feature", "geometry": {"type": "Point", "coordinates": [-0.20734, 5.572148]}, "properties": {"id": "osm_n4348160696", "name": "Asanka Design School"}}, {"type": "Feature", "geometry": {"type": "Point", "coordinates": [-0.018672, 5.655146]}, "properties": {"id": "osm_n4349873195", "name": "Tema Parents' Association School"}}, {"type": "Feature", "geometry": {"type": "Point", "coordinates": [0.029378, 5.660633]}, "properties": {"id": "osm_n4350169048", "name": "Naval Base School"}}, {"type": "Feature", "geometry": {"type": "Point", "coordinates": [-0.079655, 5.744932]}, "properties": {"id": "osm_n4350176917", "name": "Unknown", "match": "both", "match_dist_m": 55.3, "match_name": "SeyMerc Training Institute", "name_sim": 0.061}}, {"type": "Feature", "geometry": {"type": "Point", "coordinates": [-0.02168, 5.665693]}, "properties": {"id": "osm_n4350177514", "name": "Medass Old Site"}}, {"type": "Feature", "geometry": {"type": "Point", "coordinates": [0.000544, 5.724189]}, "properties": {"id": "osm_n4350187410", "name": "ETY International School, Saki"}}, {"type": "Feature", "geometry": {"type": "Point", "coordinates": [0.022213, 5.65714]}, "properties": {"id": "osm_n4350214794", "name": "Adjetey Ansah Junior High School"}}, {"type": "Feature", "geometry": {"type": "Point", "coordinates": [-0.124626, 5.67386]}, "properties": {"id": "osm_n4355196789", "name": "Silver Peak Academy-Autism Center"}}, {"type": "Feature", "geometry": {"type": "Point", "coordinates": [-0.182078, 5.596943]}, "properties": {"id": "osm_n4361890294", "name": "Alliance Français"}}, {"type": "Feature", "geometry": {"type": "Point", "coordinates": [-1.990292, 10.876997]}, "properties": {"id": "osm_n4379740590", "name": "United Basic School"}}, {"type": "Feature", "geometry": {"type": "Point", "coordinates": [-1.973604, 10.883273]}, "properties": {"id": "osm_n4379740594", "name": "Vision Academy"}}, {"type": "Feature", "geometry": {"type": "Point", "coordinates": [-1.982462, 10.87815]}, "properties": {"id": "osm_n4379740595", "name": "Unknown"}}, {"type": "Feature", "geometry": {"type": "Point", "coordinates": [-1.982213, 10.87511]}, "properties": {"id": "osm_n4379740600", "name": "Fountain Gate school"}}, {"type": "Feature", "geometry": {"type": "Point", "coordinates": [-1.992251, 10.875864]}, "properties": {"id": "osm_n4379740639", "name": "Unknown"}}, {"type": "Feature", "geometry": {"type": "Point", "coordinates": [-1.998372, 10.875002]}, "properties": {"id": "osm_n4379740647", "name": "Unknown"}}, {"type": "Feature", "geometry": {"type": "Point", "coordinates": [-0.018322, 5.648024]}, "properties": {"id": "osm_n4400481797", "name": "SOS Hermann Gmeiner International College", "match": "both", "match_dist_m": 69.8, "match_name": "SOS-Hermann Gmeiner International College", "name_sim": 1.0}}, {"type": "Feature", "geometry": {"type": "Point", "coordinates": [-0.15925, 5.707707]}, "properties": {"id": "osm_n4400510790", "name": "Adentan Community School"}}, {"type": "Feature", "geometry": {"type": "Point", "coordinates": [-0.150214, 5.682779]}, "properties": {"id": "osm_n4400511289", "name": "St Cecilia School, 3rd Gate"}}, {"type": "Feature", "geometry": {"type": "Point", "coordinates": [-0.174312, 5.746613]}, "properties": {"id": "osm_n4400511293", "name": "Oyarifa Presby School"}}, {"type": "Feature", "geometry": {"type": "Point", "coordinates": [-0.023785, 5.670786]}, "properties": {"id": "osm_n4400512389", "name": "Data Link University College"}}, {"type": "Feature", "geometry": {"type": "Point", "coordinates": [-0.206394, 5.541218]}, "properties": {"id": "osm_n4430017290", "name": "Holy Trinity Cathedral Senior High School", "level": "Secondary", "match": "both", "match_dist_m": 13.7, "match_name": "CKF School of Management and It", "name_sim": 0.222}}, {"type": "Feature", "geometry": {"type": "Point", "coordinates": [-0.899244, 10.064365]}, "properties": {"id": "osm_n4449291529", "name": "Primary School"}}, {"type": "Feature", "geometry": {"type": "Point", "coordinates": [-0.899367, 10.064141]}, "properties": {"id": "osm_n4449291530", "name": "Primary School"}}, {"type": "Feature", "geometry": {"type": "Point", "coordinates": [-1.750992, 4.895963]}, "properties": {"id": "osm_n4457227759", "name": "Naval Base Basic JSS"}}, {"type": "Feature", "geometry": {"type": "Point", "coordinates": [-1.751233, 4.894734]}, "properties": {"id": "osm_n4457227760", "name": "Naval Base Basic Schools"}}, {"type": "Feature", "geometry": {"type": "Point", "coordinates": [-0.065421, 5.656402]}, "properties": {"id": "osm_n4468954745", "name": "Barbies Learning Center"}}, {"type": "Feature", "geometry": {"type": "Point", "coordinates": [-0.066343, 5.65636]}, "properties": {"id": "osm_n4468958404", "name": "Burgain International School"}}, {"type": "Feature", "geometry": {"type": "Point", "coordinates": [-0.270207, 5.595394]}, "properties": {"id": "osm_n4494021044", "name": "Christ Mission School", "match": "both", "match_dist_m": 85.4, "match_name": "Express Media College Official ", "name_sim": 0.353}}, {"type": "Feature", "geometry": {"type": "Point", "coordinates": [-2.000087, 5.297787]}, "properties": {"id": "osm_n4511220308", "name": "GIS and Remote Sensing Lab"}}, {"type": "Feature", "geometry": {"type": "Point", "coordinates": [-1.977476, 5.282253]}, "properties": {"id": "osm_n4511930889", "name": "St. Mary's RC JHS/Primary"}}, {"type": "Feature", "geometry": {"type": "Point", "coordinates": [0.576755, 5.997583]}, "properties": {"id": "osm_n4518012043", "name": "Covenant Preparatory School"}}, {"type": "Feature", "geometry": {"type": "Point", "coordinates": [-1.564615, 6.675723]}, "properties": {"id": "osm_n4533656611", "name": "Biotechnology and Microbiology Labs, Department of Crop and Soil Sciences", "match": "both", "match_dist_m": 66.7, "match_name": "Institute of Renewable Resources", "name_sim": 0.269}}, {"type": "Feature", "geometry": {"type": "Point", "coordinates": [-0.008299, 5.654117]}, "properties": {"id": "osm_n4544614095", "name": "Mazon Grace Academy", "match": "both", "match_dist_m": 98.8, "match_name": "Shiloh Community School", "name_sim": 0.095}}, {"type": "Feature", "geometry": {"type": "Point", "coordinates": [-0.004469, 5.658455]}, "properties": {"id": "osm_n4545091693", "name": "GTP School"}}, {"type": "Feature", "geometry": {"type": "Point", "coordinates": [-2.622526, 7.969854]}, "properties": {"id": "osm_n4547672680", "name": "Roman Catholic School"}}, {"type": "Feature", "geometry": {"type": "Point", "coordinates": [-2.629387, 7.968093]}, "properties": {"id": "osm_n4547672683", "name": "Unknown"}}, {"type": "Feature", "geometry": {"type": "Point", "coordinates": [0.0499, 5.764993]}, "properties": {"id": "osm_n4555927489", "name": "Nancy Preparatory School (Dawhewnya)"}}, {"type": "Feature", "geometry": {"type": "Point", "coordinates": [-0.164773, 5.56745]}, "properties": {"id": "osm_n4582472589", "name": "Divine Provision School"}}, {"type": "Feature", "geometry": {"type": "Point", "coordinates": [-1.394203, 6.849475]}, "properties": {"id": "osm_n4587686789", "name": "Presbyterian Primary School"}}, {"type": "Feature", "geometry": {"type": "Point", "coordinates": [-1.290723, 5.121332]}, "properties": {"id": "osm_n4590995080", "name": "UIC - Jesus' Kids Daycare Centerd"}}, {"type": "Feature", "geometry": {"type": "Point", "coordinates": [-0.234425, 5.580441]}, "properties": {"id": "osm_n4595095428", "name": "Graceland Basic School", "match": "both", "match_dist_m": 19.0, "match_name": "Graceland International School", "name_sim": 1.0}}, {"type": "Feature", "geometry": {"type": "Point", "coordinates": [-0.235639, 5.579494]}, "properties": {"id": "osm_n4595116406", "name": "Kaneshie North 1&2 Primary and JHS"}}, {"type": "Feature", "geometry": {"type": "Point", "coordinates": [-1.399689, 6.849774]}, "properties": {"id": "osm_n4595156590", "name": "Effiduase Methodist Primary School"}}, {"type": "Feature", "geometry": {"type": "Point", "coordinates": [-1.398148, 6.8494]}, "properties": {"id": "osm_n4595249796", "name": "Wesley Prep.Sch."}}, {"type": "Feature", "geometry": {"type": "Point", "coordinates": [1.045765, 6.080513]}, "properties": {"id": "osm_n4607246057", "name": "Unknown"}}, {"type": "Feature", "geometry": {"type": "Point", "coordinates": [-0.936219, 5.406219]}, "properties": {"id": "osm_n4614563989", "name": "Golden Bridge Academy"}}, {"type": "Feature", "geometry": {"type": "Point", "coordinates": [-1.965357, 7.396791]}, "properties": {"id": "osm_n4621957490", "name": "R/C jhs"}}, {"type": "Feature", "geometry": {"type": "Point", "coordinates": [-0.263844, 5.548468]}, "properties": {"id": "osm_n4636308498", "name": "Emmanuel Presbytarian School", "match": "both", "match_dist_m": 46.8, "match_name": "Star Preparatory & junior high school", "name_sim": 0.476}}, {"type": "Feature", "geometry": {"type": "Point", "coordinates": [-0.184131, 5.649111]}, "properties": {"id": "osm_n4637583291", "name": "West Africa Centre for Crop Improvement", "match": "both", "match_dist_m": 89.8, "match_name": "Department of Agriculture Economics and Agribusiness", "name_sim": 0.132}}, {"type": "Feature", "geometry": {"type": "Point", "coordinates": [-0.135176, 5.699813]}, "properties": {"id": "osm_n4643870390", "name": "Mercy Social Centre"}}, {"type": "Feature", "geometry": {"type": "Point", "coordinates": [0.593502, 6.002418]}, "properties": {"id": "osm_n4647741516", "name": "G P Primary School"}}, {"type": "Feature", "geometry": {"type": "Point", "coordinates": [-2.323251, 7.333438]}, "properties": {"id": "osm_n4659735795", "name": "Mater Dei ICT Academy"}}, {"type": "Feature", "geometry": {"type": "Point", "coordinates": [-0.428495, 5.524131]}, "properties": {"id": "osm_n4667341890", "name": "Great Promise School"}}, {"type": "Feature", "geometry": {"type": "Point", "coordinates": [0.45967, 6.608849]}, "properties": {"id": "osm_n4674436489", "name": "School of Hygiene, Ho"}}, {"type": "Feature", "geometry": {"type": "Point", "coordinates": [-0.310427, 5.586198]}, "properties": {"id": "osm_n4697067470", "name": "Faith Montessori School"}}, {"type": "Feature", "geometry": {"type": "Point", "coordinates": [-0.297024, 5.578018]}, "properties": {"id": "osm_n4697067471", "name": "New Gbawe Cluster of Schools"}}, {"type": "Feature", "geometry": {"type": "Point", "coordinates": [-1.073542, 5.201677]}, "properties": {"id": "osm_n4703573222", "name": "Assemblies of God Theology Seminary", "match": "both", "match_dist_m": 54.1, "match_name": "Assemblies of God Theological Seminary", "name_sim": 0.932}}, {"type": "Feature", "geometry": {"type": "Point", "coordinates": [-2.139433, 5.438536]}, "properties": {"id": "osm_n4703664975", "name": "Islamic Basic School"}}, {"type": "Feature", "geometry": {"type": "Point", "coordinates": [0.432343, 6.591713]}, "properties": {"id": "osm_n4710729537", "name": "Lady Volta Vocational Center - Electricity and Solar"}}, {"type": "Feature", "geometry": {"type": "Point", "coordinates": [-1.713554, 4.938504]}, "properties": {"id": "osm_n4722388189", "name": "Health Regional Training Centre"}}, {"type": "Feature", "geometry": {"type": "Point", "coordinates": [-1.565397, 6.672264]}, "properties": {"id": "osm_n4732265523", "name": "RSWECK", "match": "both", "match_dist_m": 99.8, "match_name": "KNUST, Faculty of Engineering", "name_sim": 0.059}}, {"type": "Feature", "geometry": {"type": "Point", "coordinates": [-0.29327, 5.559879]}, "properties": {"id": "osm_n4739843024", "name": "Blessed School Complex"}}, {"type": "Feature", "geometry": {"type": "Point", "coordinates": [-0.295182, 5.559205]}, "properties": {"id": "osm_n4739843025", "name": "Jayee University College", "match": "both", "match_dist_m": 219.8, "match_name": "Regent University College of Science and Technology", "name_sim": 0.56}}, {"type": "Feature", "geometry": {"type": "Point", "coordinates": [-0.310094, 5.558166]}, "properties": {"id": "osm_n4739904328", "name": "Oblogo Cluster of Schools"}}, {"type": "Feature", "geometry": {"type": "Point", "coordinates": [-0.213126, 5.554695]}, "properties": {"id": "osm_n4740602034", "name": "Virgo Preparatory School"}}, {"type": "Feature", "geometry": {"type": "Point", "coordinates": [-0.010558, 5.673696]}, "properties": {"id": "osm_n4741156985", "name": "Unknown", "match": "both", "match_dist_m": 66.1, "match_name": "The Centre for Business and Media Studies ", "name_sim": 0.125}}, {"type": "Feature", "geometry": {"type": "Point", "coordinates": [-0.165024, 5.645156]}, "properties": {"id": "osm_n4741326737", "name": "Bevy Bi-Lingual School"}}, {"type": "Feature", "geometry": {"type": "Point", "coordinates": [-0.16888, 5.646835]}, "properties": {"id": "osm_n4741326738", "name": "Buzzy Kids Montessori School"}}, {"type": "Feature", "geometry": {"type": "Point", "coordinates": [-0.187168, 5.818216]}, "properties": {"id": "osm_n4743213942", "name": "Gyankama Methodist Primary & JHS"}}, {"type": "Feature", "geometry": {"type": "Point", "coordinates": [-2.084721, 5.009463]}, "properties": {"id": "osm_n4752865130", "name": "Unknown"}}, {"type": "Feature", "geometry": {"type": "Point", "coordinates": [-0.650951, 5.392146]}, "properties": {"id": "osm_n4756843424", "name": "St Helena Prep School, Asebu"}}, {"type": "Feature", "geometry": {"type": "Point", "coordinates": [0.353533, 6.74714]}, "properties": {"id": "osm_n4792463509", "name": "Have R. C Basic Schools"}}, {"type": "Feature", "geometry": {"type": "Point", "coordinates": [-0.558412, 5.715489]}, "properties": {"id": "osm_n4799929621", "name": "Awutu Ofaso D/A JHS"}}, {"type": "Feature", "geometry": {"type": "Point", "coordinates": [-0.559167, 5.599862]}, "properties": {"id": "osm_n4801736314", "name": "Awutu Bontrase D/A School"}}, {"type": "Feature", "geometry": {"type": "Point", "coordinates": [-0.552082, 5.594585]}, "properties": {"id": "osm_n4801736315", "name": "Awutu Aberful Cluster of schools"}}, {"type": "Feature", "geometry": {"type": "Point", "coordinates": [-0.554845, 5.606817]}, "properties": {"id": "osm_n4801736316", "name": "Star Destiny International School"}}, {"type": "Feature", "geometry": {"type": "Point", "coordinates": [-0.55303, 5.609019]}, "properties": {"id": "osm_n4801736317", "name": "Bontrase St Francis Anglican JHS"}}, {"type": "Feature", "geometry": {"type": "Point", "coordinates": [-0.552516, 5.609548]}, "properties": {"id": "osm_n4801736318", "name": "Bontrase D/A JHS"}}, {"type": "Feature", "geometry": {"type": "Point", "coordinates": [-0.545609, 5.611499]}, "properties": {"id": "osm_n4801736319", "name": "Mfadwen Cluster of Schools"}}, {"type": "Feature", "geometry": {"type": "Point", "coordinates": [-0.535058, 5.606888]}, "properties": {"id": "osm_n4801736320", "name": "Odotom D/A JHS"}}, {"type": "Feature", "geometry": {"type": "Point", "coordinates": [-0.517993, 5.625872]}, "properties": {"id": "osm_n4801739021", "name": "Ayiresu D/A JHS"}}, {"type": "Feature", "geometry": {"type": "Point", "coordinates": [-0.510252, 5.640478]}, "properties": {"id": "osm_n4801739022", "name": "Osai Krodua JHS"}}, {"type": "Feature", "geometry": {"type": "Point", "coordinates": [-0.4976, 5.648157]}, "properties": {"id": "osm_n4801739023", "name": "St Thomas Private School"}}, {"type": "Feature", "geometry": {"type": "Point", "coordinates": [-0.498676, 5.649193]}, "properties": {"id": "osm_n4801739024", "name": "Jei Krodua JHS"}}, {"type": "Feature", "geometry": {"type": "Point", "coordinates": [-0.541208, 5.681421]}, "properties": {"id": "osm_n4801739025", "name": "Countryside Welfare Home Private School"}}, {"type": "Feature", "geometry": {"type": "Point", "coordinates": [-0.546994, 5.682756]}, "properties": {"id": "osm_n4801739026", "name": "Bawjiase JHS"}}, {"type": "Feature", "geometry": {"type": "Point", "coordinates": [-0.556891, 5.685161]}, "properties": {"id": "osm_n4801739027", "name": "Bawjiase D/A JHS"}}, {"type": "Feature", "geometry": {"type": "Point", "coordinates": [-0.561351, 5.680886]}, "properties": {"id": "osm_n4801739028", "name": "Bawjiase SDA JHS"}}, {"type": "Feature", "geometry": {"type": "Point", "coordinates": [-0.562784, 5.639232]}, "properties": {"id": "osm_n4801739029", "name": "Awutu Bewuanum D/A JHS"}}, {"type": "Feature", "geometry": {"type": "Point", "coordinates": [-0.564887, 5.636655]}, "properties": {"id": "osm_n4801739030", "name": "Great Faith International Schools"}}, {"type": "Feature", "geometry": {"type": "Point", "coordinates": [-1.970729, 5.337936]}, "properties": {"id": "osm_n4803881311", "name": "Ransbet Senior High Technical School"}}, {"type": "Feature", "geometry": {"type": "Point", "coordinates": [-0.096708, 5.622665]}, "properties": {"id": "osm_n4821648868", "name": "Glow-Lamp International School", "match": "both", "match_dist_m": 7.4, "match_name": "Glow-lamp International School", "name_sim": 1.0}}, {"type": "Feature", "geometry": {"type": "Point", "coordinates": [-0.229751, 5.575015]}, "properties": {"id": "osm_n4833457721", "name": "BYF Institute of Health Sciences"}}, {"type": "Feature", "geometry": {"type": "Point", "coordinates": [-1.267847, 5.136503]}, "properties": {"id": "osm_n4845697722", "name": "NMTC - Cape Coast", "match": "both", "match_dist_m": 31.1, "match_name": "Interbeton Nursing and Midwifery Training Collage", "name_sim": 0.25}}, {"type": "Feature", "geometry": {"type": "Point", "coordinates": [-2.007674, 5.573566]}, "properties": {"id": "osm_n4851957894", "name": "Purity School"}}, {"type": "Feature", "geometry": {"type": "Point", "coordinates": [-2.01089, 5.570515]}, "properties": {"id": "osm_n4851957896", "name": "D/A School"}}, {"type": "Feature", "geometry": {"type": "Point", "coordinates": [-2.012697, 5.568988]}, "properties": {"id": "osm_n4851999167", "name": "Methodist Basic Schools", "match": "both", "match_dist_m": 265.4, "match_name": "Golden Star Basic  School - Bogoso ", "name_sim": 0.63}}, {"type": "Feature", "geometry": {"type": "Point", "coordinates": [-1.655068, 6.908962]}, "properties": {"id": "osm_n4881656401", "name": "Unknown"}}, {"type": "Feature", "geometry": {"type": "Point", "coordinates": [-1.592653, 6.687539]}, "properties": {"id": "osm_n4881992781", "name": "Oforikrom MA A Schools"}}, {"type": "Feature", "geometry": {"type": "Point", "coordinates": [-1.592261, 6.685358]}, "properties": {"id": "osm_n4881992783", "name": "Oforikrom MA B Schools"}}, {"type": "Feature", "geometry": {"type": "Point", "coordinates": [-1.817056, 5.965239]}, "properties": {"id": "osm_n4910910964", "name": "Unknown"}}, {"type": "Feature", "geometry": {"type": "Point", "coordinates": [-2.017072, 5.847477]}, "properties": {"id": "osm_n4910912024", "name": "St. Francis Memorial School"}}, {"type": "Feature", "geometry": {"type": "Point", "coordinates": [-1.760157, 6.038294]}, "properties": {"id": "osm_n4915711154", "name": "Unknown"}}, {"type": "Feature", "geometry": {"type": "Point", "coordinates": [-1.776049, 6.071877]}, "properties": {"id": "osm_n4915711155", "name": "Unknown"}}, {"type": "Feature", "geometry": {"type": "Point", "coordinates": [-1.625684, 6.372885]}, "properties": {"id": "osm_n4915711163", "name": "Unknown"}}, {"type": "Feature", "geometry": {"type": "Point", "coordinates": [-1.988327, 5.455652]}, "properties": {"id": "osm_n4919821037", "name": "Unknown"}}, {"type": "Feature", "geometry": {"type": "Point", "coordinates": [-0.178072, 5.685674]}, "properties": {"id": "osm_n4920562624", "name": "Music Therapy Association of Ghana (MTAG)"}}, {"type": "Feature", "geometry": {"type": "Point", "coordinates": [-1.280812, 5.701401]}, "properties": {"id": "osm_n4922014721", "name": "Foso Methodist Cluster of Schools"}}, {"type": "Feature", "geometry": {"type": "Point", "coordinates": [-2.005317, 7.356175]}, "properties": {"id": "osm_n4922336523", "name": "Nyinatase Presbyterian primary."}}, {"type": "Feature", "geometry": {"type": "Point", "coordinates": [-0.515237, 5.51565]}, "properties": {"id": "osm_n4934286921", "name": "Rebecca Moore SDA School"}}, {"type": "Feature", "geometry": {"type": "Point", "coordinates": [-0.531297, 5.557226]}, "properties": {"id": "osm_n4936477723", "name": "Awutu Ahentia JHS"}}, {"type": "Feature", "geometry": {"type": "Point", "coordinates": [-0.543765, 5.569262]}, "properties": {"id": "osm_n4936477724", "name": "Awutu Chochoe D/A School"}}, {"type": "Feature", "geometry": {"type": "Point", "coordinates": [-0.516487, 5.508249]}, "properties": {"id": "osm_n4936477725", "name": "Your Faith International School"}}, {"type": "Feature", "geometry": {"type": "Point", "coordinates": [-0.521114, 5.719274]}, "properties": {"id": "osm_n4936477727", "name": "Awutu Otopiase D/A JHS"}}, {"type": "Feature", "geometry": {"type": "Point", "coordinates": [-0.558417, 5.715367]}, "properties": {"id": "osm_n4936477728", "name": "Awutu Ofaso Methodist JHS"}}, {"type": "Feature", "geometry": {"type": "Point", "coordinates": [-0.515505, 5.518943]}, "properties": {"id": "osm_n4936477822", "name": "S.S. Peter & Paul Anglican School"}}, {"type": "Feature", "geometry": {"type": "Point", "coordinates": [-0.517096, 5.516583]}, "properties": {"id": "osm_n4936480723", "name": "Awutu Roman Catholic Schools"}}, {"type": "Feature", "geometry": {"type": "Point", "coordinates": [-0.568788, 5.616785]}, "properties": {"id": "osm_n4936480724", "name": "Awutu Akrabong D/A JHS"}}, {"type": "Feature", "geometry": {"type": "Point", "coordinates": [-0.51535, 5.509393]}, "properties": {"id": "osm_n4936480827", "name": "Awutu Bereku D/A cluster of schools"}}, {"type": "Feature", "geometry": {"type": "Point", "coordinates": [-0.575399, 5.631621]}, "properties": {"id": "osm_n4936480829", "name": "Awutu Mfafo DA School"}}, {"type": "Feature", "geometry": {"type": "Point", "coordinates": [-0.583136, 5.653367]}, "properties": {"id": "osm_n4936480831", "name": "Awutu Obrachire D/A JHS"}}, {"type": "Feature", "geometry": {"type": "Point", "coordinates": [-0.535943, 5.726693]}, "properties": {"id": "osm_n4936480832", "name": "Awutu Ofaada Methodist JHS"}}, {"type": "Feature", "geometry": {"type": "Point", "coordinates": [-0.519227, 5.501784]}, "properties": {"id": "osm_n4936480929", "name": "Awutu A.M.E. Zion School"}}, {"type": "Feature", "geometry": {"type": "Point", "coordinates": [-0.51966, 5.510996]}, "properties": {"id": "osm_n4936480930", "name": "Gloriham International Schools"}}, {"type": "Feature", "geometry": {"type": "Point", "coordinates": [-0.995958, 5.921943]}, "properties": {"id": "osm_n4964026925", "name": "CITA Preparatory School, South Town Campus"}}, {"type": "Feature", "geometry": {"type": "Point", "coordinates": [-0.995144, 5.924502]}, "properties": {"id": "osm_n4964041128", "name": "Cita Preparatory and Junior High School"}}, {"type": "Feature", "geometry": {"type": "Point", "coordinates": [-0.998002, 5.906397]}, "properties": {"id": "osm_n4964043326", "name": "Cita Preparatory and Junior High School"}}, {"type": "Feature", "geometry": {"type": "Point", "coordinates": [-0.994915, 5.924077]}, "properties": {"id": "osm_n4964043422", "name": "Cita Junior High School"}}, {"type": "Feature", "geometry": {"type": "Point", "coordinates": [-1.286098, 5.124654]}, "properties": {"id": "osm_n4968259597", "name": "University Practice Senior High School", "level": "Secondary", "match": "both", "match_dist_m": 20.2, "match_name": "University Practice Secondary School", "name_sim": 1.0}}, {"type": "Feature", "geometry": {"type": "Point", "coordinates": [-1.262107, 5.115529]}, "properties": {"id": "osm_n4971251103", "name": "Christ Church Anglican Basic School"}}, {"type": "Feature", "geometry": {"type": "Point", "coordinates": [-0.190495, 5.672774]}, "properties": {"id": "osm_n4972577045", "name": "Little Professors Academy"}}, {"type": "Feature", "geometry": {"type": "Point", "coordinates": [-0.193935, 5.557729]}, "properties": {"id": "osm_n4974191975", "name": "Judicial Training Institute"}}, {"type": "Feature", "geometry": {"type": "Point", "coordinates": [-0.100937, 5.59582]}, "properties": {"id": "osm_n4975615439", "name": "SAP'S School (Old Site)", "match": "both", "match_dist_m": 77.2, "match_name": "Kellhop Montessori School ", "name_sim": 0.435}}, {"type": "Feature", "geometry": {"type": "Point", "coordinates": [-0.204816, 5.547439]}, "properties": {"id": "osm_n4987990753", "name": "Queen Elizabeth II Education Center"}}, {"type": "Feature", "geometry": {"type": "Point", "coordinates": [-0.16877, 5.658462]}, "properties": {"id": "osm_n4988373760", "name": "Ideal College"}}, {"type": "Feature", "geometry": {"type": "Point", "coordinates": [-0.244475, 5.567961]}, "properties": {"id": "osm_n4993057029", "name": "Grace and Mercy School"}}, {"type": "Feature", "geometry": {"type": "Point", "coordinates": [-1.573862, 6.751835]}, "properties": {"id": "osm_n5000241122", "name": "Potter's House Christian Academy"}}, {"type": "Feature", "geometry": {"type": "Point", "coordinates": [0.894023, 6.066074]}, "properties": {"id": "osm_n5003915220", "name": "Unknown"}}, {"type": "Feature", "geometry": {"type": "Point", "coordinates": [0.919603, 6.06478]}, "properties": {"id": "osm_n5003915221", "name": "Unknown"}}, {"type": "Feature", "geometry": {"type": "Point", "coordinates": [-0.242744, 5.565763]}, "properties": {"id": "osm_n5016194289", "name": "Bennett Caulley Memorial School"}}, {"type": "Feature", "geometry": {"type": "Point", "coordinates": [-0.159786, 5.573819]}, "properties": {"id": "osm_n5016532177", "name": "Liberty International School"}}, {"type": "Feature", "geometry": {"type": "Point", "coordinates": [-0.243985, 5.5683]}, "properties": {"id": "osm_n5022632309", "name": "Grace Preparatory & JHS", "match": "both", "match_dist_m": 15.0, "match_name": "Grace Preparatory School", "name_sim": 0.844}}, {"type": "Feature", "geometry": {"type": "Point", "coordinates": [-0.18128, 5.562509]}, "properties": {"id": "osm_n5022715401", "name": "St. Charbel International School"}}, {"type": "Feature", "geometry": {"type": "Point", "coordinates": [-0.271206, 5.735338]}, "properties": {"id": "osm_n5024595410", "name": "Unknown"}}, {"type": "Feature", "geometry": {"type": "Point", "coordinates": [-0.243604, 5.532168]}, "properties": {"id": "osm_n5027248832", "name": "Unknown"}}, {"type": "Feature", "geometry": {"type": "Point", "coordinates": [-1.881202, 4.893392]}, "properties": {"id": "osm_n5033060365", "name": "Unknown"}}, {"type": "Feature", "geometry": {"type": "Point", "coordinates": [-1.575259, 6.455199]}, "properties": {"id": "osm_n5060804352", "name": "Central International School"}}, {"type": "Feature", "geometry": {"type": "Point", "coordinates": [-1.571158, 6.452329]}, "properties": {"id": "osm_n5060804355", "name": "Bekwai Municipal Assembly Primary School"}}, {"type": "Feature", "geometry": {"type": "Point", "coordinates": [-1.571091, 6.451279]}, "properties": {"id": "osm_n5060804356", "name": "Bekwai Experimental JHS"}}, {"type": "Feature", "geometry": {"type": "Point", "coordinates": [-1.568878, 6.45446]}, "properties": {"id": "osm_n5060812045", "name": "Anglican Primary School"}}, {"type": "Feature", "geometry": {"type": "Point", "coordinates": [-1.570112, 6.454215]}, "properties": {"id": "osm_n5060812046", "name": "Anglican Junior High School"}}, {"type": "Feature", "geometry": {"type": "Point", "coordinates": [-1.569693, 6.459934]}, "properties": {"id": "osm_n5060839181", "name": "Methodist Junior High School"}}, {"type": "Feature", "geometry": {"type": "Point", "coordinates": [-1.581858, 6.448454]}, "properties": {"id": "osm_n5060848748", "name": "Church of Christ School (CCS)"}}, {"type": "Feature", "geometry": {"type": "Point", "coordinates": [1.083674, 6.095125]}, "properties": {"id": "osm_n5066522285", "name": "Unknown"}}, {"type": "Feature", "geometry": {"type": "Point", "coordinates": [0.427622, 5.88284]}, "properties": {"id": "osm_n5066522637", "name": "St. Mary's Roman Catholic Basic Schools"}}, {"type": "Feature", "geometry": {"type": "Point", "coordinates": [0.846083, 6.088958]}, "properties": {"id": "osm_n5087710552", "name": "Unknown"}}, {"type": "Feature", "geometry": {"type": "Point", "coordinates": [0.917175, 6.064836]}, "properties": {"id": "osm_n5087710831", "name": "Afife EP Primary Schools"}}, {"type": "Feature", "geometry": {"type": "Point", "coordinates": [-1.777458, 4.937348]}, "properties": {"id": "osm_n5091727772", "name": "Queen of Peace Academy", "match": "both", "match_dist_m": 27.8, "match_name": "Queen of Peace", "name_sim": 1.0}}, {"type": "Feature", "geometry": {"type": "Point", "coordinates": [-0.192739, 5.667142]}, "properties": {"id": "osm_n5108895935", "name": "Ebenezer Nursery"}}, {"type": "Feature", "geometry": {"type": "Point", "coordinates": [-0.205572, 5.6672]}, "properties": {"id": "osm_n5108895936", "name": "Hallmark International School"}}, {"type": "Feature", "geometry": {"type": "Point", "coordinates": [-2.318119, 6.273051]}, "properties": {"id": "osm_n5126035427", "name": "Chirano DA Primary School"}}, {"type": "Feature", "geometry": {"type": "Point", "coordinates": [1.151786, 6.104661]}, "properties": {"id": "osm_n5126700740", "name": "2nd Image"}}, {"type": "Feature", "geometry": {"type": "Point", "coordinates": [0.014458, 5.734279]}, "properties": {"id": "osm_n5135458923", "name": "Delhi Public School (DPS)", "match": "both", "match_dist_m": 32.6, "match_name": "DELHI Public School GHANA", "name_sim": 0.833}}, {"type": "Feature", "geometry": {"type": "Point", "coordinates": [-0.183947, 5.55735]}, "properties": {"id": "osm_n5139466269", "name": "Cherished Kids Creche & Nursery"}}, {"type": "Feature", "geometry": {"type": "Point", "coordinates": [-2.003449, 5.277436]}, "properties": {"id": "osm_n5141525023", "name": "Holy Spirit Preparatory School"}}, {"type": "Feature", "geometry": {"type": "Point", "coordinates": [-2.003987, 5.277767]}, "properties": {"id": "osm_n5141550121", "name": "Ideal College"}}, {"type": "Feature", "geometry": {"type": "Point", "coordinates": [-1.634655, 5.013429]}, "properties": {"id": "osm_n5186466422", "name": "Shama Methodist Primary School"}}, {"type": "Feature", "geometry": {"type": "Point", "coordinates": [-1.633248, 5.010266]}, "properties": {"id": "osm_n5186466521", "name": "Roman Catholic Primary & JHS School"}}, {"type": "Feature", "geometry": {"type": "Point", "coordinates": [-1.615508, 6.637617]}, "properties": {"id": "osm_n5187456103", "name": "The Hilltop Platinum Schools"}}, {"type": "Feature", "geometry": {"type": "Point", "coordinates": [-1.991702, 5.300492]}, "properties": {"id": "osm_n5196219011", "name": "Pentecost Preparatory School"}}, {"type": "Feature", "geometry": {"type": "Point", "coordinates": [-2.028839, 5.686854]}, "properties": {"id": "osm_n5207579308", "name": "Pentecost Preparatory School"}}, {"type": "Feature", "geometry": {"type": "Point", "coordinates": [-2.023134, 5.684315]}, "properties": {"id": "osm_n5207579309", "name": "Wassa Dawurampong English and Arabic J.H.S."}}, {"type": "Feature", "geometry": {"type": "Point", "coordinates": [-2.023788, 5.685248]}, "properties": {"id": "osm_n5207579310", "name": "Wassa Dawurampong English and Arabic Primary School"}}, {"type": "Feature", "geometry": {"type": "Point", "coordinates": [-2.022195, 5.688699]}, "properties": {"id": "osm_n5207579311", "name": "Wassa Dawurampong District Assembly J.H.S"}}, {"type": "Feature", "geometry": {"type": "Point", "coordinates": [-2.021685, 5.687657]}, "properties": {"id": "osm_n5207579312", "name": "Ox-Bridge Preparatory / J.H.S"}}, {"type": "Feature", "geometry": {"type": "Point", "coordinates": [-2.024344, 5.686772]}, "properties": {"id": "osm_n5207579313", "name": "Wassa Dawurampong District Assembly Primary School"}}, {"type": "Feature", "geometry": {"type": "Point", "coordinates": [-0.06496, 5.6402]}, "properties": {"id": "osm_n5207862714", "name": "Vision Intellectuals School"}}, {"type": "Feature", "geometry": {"type": "Point", "coordinates": [-0.182941, 5.670961]}, "properties": {"id": "osm_n5209797326", "name": "North Legon Pre-School"}}, {"type": "Feature", "geometry": {"type": "Point", "coordinates": [-0.18692, 5.671712]}, "properties": {"id": "osm_n5209797327", "name": "North Legon Little Campus (International School)"}}, {"type": "Feature", "geometry": {"type": "Point", "coordinates": [-0.180538, 5.670277]}, "properties": {"id": "osm_n5209798117", "name": "IPMC IT Learning Center", "match": "both", "match_dist_m": 91.8, "match_name": "JACCD Professional Development Center", "name_sim": 0.367}}, {"type": "Feature", "geometry": {"type": "Point", "coordinates": [-0.178868, 5.669764]}, "properties": {"id": "osm_n5209798230", "name": "Kids at Heart International School"}}, {"type": "Feature", "geometry": {"type": "Point", "coordinates": [-0.14888, 5.647043]}, "properties": {"id": "osm_n5210329738", "name": "Princess Diana Memorial School"}}, {"type": "Feature", "geometry": {"type": "Point", "coordinates": [-2.491148, 10.057104]}, "properties": {"id": "osm_n5224381721", "name": "Fongo L/A Junior High School"}}, {"type": "Feature", "geometry": {"type": "Point", "coordinates": [1.150428, 6.094582]}, "properties": {"id": "osm_n5250397940", "name": "Amazing Love Schools"}}, {"type": "Feature", "geometry": {"type": "Point", "coordinates": [-1.863635, 9.221705]}, "properties": {"id": "osm_n5253051526", "name": "Primary School Block 'B'"}}, {"type": "Feature", "geometry": {"type": "Point", "coordinates": [-2.501173, 10.071366]}, "properties": {"id": "osm_n5270787221", "name": "Fallahia Islamic Primary & JHS"}}, {"type": "Feature", "geometry": {"type": "Point", "coordinates": [-0.267422, 5.558583]}, "properties": {"id": "osm_n5287621016", "name": "Dansoman Baptist Primary & JHS"}}, {"type": "Feature", "geometry": {"type": "Point", "coordinates": [0.798127, 6.126254]}, "properties": {"id": "osm_n5298609688", "name": "Akatsico Practice School"}}, {"type": "Feature", "geometry": {"type": "Point", "coordinates": [-0.245179, 5.610828]}, "properties": {"id": "osm_n5300353028", "name": "M & Bee School", "match": "both", "match_dist_m": 67.0, "match_name": "Perpetual Help School", "name_sim": 0.545}}, {"type": "Feature", "geometry": {"type": "Point", "coordinates": [-0.123122, 5.677976]}, "properties": {"id": "osm_n5301960415", "name": "Cansford International School"}}, {"type": "Feature", "geometry": {"type": "Point", "coordinates": [-2.339124, 7.340224]}, "properties": {"id": "osm_n5307217013", "name": "Ridge Experimental School", "match": "both", "match_dist_m": 279.5, "match_name": "Dreamfield International School - DIS", "name_sim": 0.567}}, {"type": "Feature", "geometry": {"type": "Point", "coordinates": [-2.327107, 7.342186]}, "properties": {"id": "osm_n5308402799", "name": "Boahenkorkor Presby School"}}, {"type": "Feature", "geometry": {"type": "Point", "coordinates": [-2.327999, 7.34141]}, "properties": {"id": "osm_n5308403751", "name": "Presby Preparatory School"}}, {"type": "Feature", "geometry": {"type": "Point", "coordinates": [-2.328068, 7.341988]}, "properties": {"id": "osm_n5308403760", "name": "Old Nursery"}}, {"type": "Feature", "geometry": {"type": "Point", "coordinates": [-1.879522, 5.504737]}, "properties": {"id": "osm_n5311756337", "name": "Kyekyewere A.M.E. Zion Basic School"}}, {"type": "Feature", "geometry": {"type": "Point", "coordinates": [-1.91253, 5.469936]}, "properties": {"id": "osm_n5311758644", "name": "Huni Valley Basic School"}}, {"type": "Feature", "geometry": {"type": "Point", "coordinates": [-1.904162, 7.635585]}, "properties": {"id": "osm_n5323137337", "name": "Unknown"}}, {"type": "Feature", "geometry": {"type": "Point", "coordinates": [-2.345385, 7.359286]}, "properties": {"id": "osm_n5330094430", "name": "Urban Council School"}}, {"type": "Feature", "geometry": {"type": "Point", "coordinates": [0.524058, 5.979223]}, "properties": {"id": "osm_n5331136408", "name": "Kpotame D/A Junior High School"}}, {"type": "Feature", "geometry": {"type": "Point", "coordinates": [-1.076934, 5.201065]}, "properties": {"id": "osm_n5331585443", "name": "Komatse Methodist A & B Basic Schools"}}, {"type": "Feature", "geometry": {"type": "Point", "coordinates": [-1.721909, 6.711025]}, "properties": {"id": "osm_n5331691622", "name": "Abraham Lincoln International School"}}, {"type": "Feature", "geometry": {"type": "Point", "coordinates": [-0.989927, 5.271922]}, "properties": {"id": "osm_n5332670926", "name": "Unknown"}}, {"type": "Feature", "geometry": {"type": "Point", "coordinates": [-1.605403, 6.710973]}, "properties": {"id": "osm_n5347282921", "name": "Ave Maria Preparatory School"}}, {"type": "Feature", "geometry": {"type": "Point", "coordinates": [-1.58435, 6.686828]}, "properties": {"id": "osm_n5347282922", "name": "Se Manhyia Royal International School"}}, {"type": "Feature", "geometry": {"type": "Point", "coordinates": [-0.694885, 10.778932]}, "properties": {"id": "osm_n5349015920", "name": "Duusi Basic Schools"}}, {"type": "Feature", "geometry": {"type": "Point", "coordinates": [-1.659522, 6.623482]}, "properties": {"id": "osm_n5352971422", "name": "Royal Shekinah Academy"}}, {"type": "Feature", "geometry": {"type": "Point", "coordinates": [-2.365309, 4.947237]}, "properties": {"id": "osm_n5358462851", "name": "Living Stone Preparatory School"}}, {"type": "Feature", "geometry": {"type": "Point", "coordinates": [-1.993217, 5.297346]}, "properties": {"id": "osm_n5363912815", "name": "Hooper Memorial D/C Primary School"}}, {"type": "Feature", "geometry": {"type": "Point", "coordinates": [-1.560453, 6.676926]}, "properties": {"id": "osm_n5367408809", "name": "Ayeduase Basic School", "match": "both", "match_dist_m": 248.0, "match_name": "Hannah Montessori School", "name_sim": 0.533}}, {"type": "Feature", "geometry": {"type": "Point", "coordinates": [-0.158866, 5.677118]}, "properties": {"id": "osm_n5394316201", "name": "Natioanal Women Training Centre"}}, {"type": "Feature", "geometry": {"type": "Point", "coordinates": [-2.042238, 5.18239]}, "properties": {"id": "osm_n5431157482", "name": "Unknown"}}, {"type": "Feature", "geometry": {"type": "Point", "coordinates": [-2.076493, 5.154995]}, "properties": {"id": "osm_n5431174112", "name": "Dompim Methodist Basic Schools"}}, {"type": "Feature", "geometry": {"type": "Point", "coordinates": [-2.021463, 5.218179]}, "properties": {"id": "osm_n5431175108", "name": "Unknown"}}, {"type": "Feature", "geometry": {"type": "Point", "coordinates": [-2.07867, 5.155338]}, "properties": {"id": "osm_n5433281149", "name": "Seventh Day Adventist JHS"}}, {"type": "Feature", "geometry": {"type": "Point", "coordinates": [-0.144224, 5.573148]}, "properties": {"id": "osm_n5459743722", "name": "Unknown", "match": "both", "match_dist_m": 94.0, "match_name": "Zenith University College", "name_sim": 0.188}}, {"type": "Feature", "geometry": {"type": "Point", "coordinates": [-0.274425, 6.901299]}, "properties": {"id": "osm_n5526564046", "name": "Unknown"}}, {"type": "Feature", "geometry": {"type": "Point", "coordinates": [-0.694882, 5.510737]}, "properties": {"id": "osm_n5535309845", "name": "Presbyterian School"}}, {"type": "Feature", "geometry": {"type": "Point", "coordinates": [-0.71666, 5.585006]}, "properties": {"id": "osm_n5535380935", "name": "West Point"}}, {"type": "Feature", "geometry": {"type": "Point", "coordinates": [-2.136165, 5.688923]}, "properties": {"id": "osm_n5535643092", "name": "Unknown"}}, {"type": "Feature", "geometry": {"type": "Point", "coordinates": [-2.045894, 5.584225]}, "properties": {"id": "osm_n5535643655", "name": "Unknown"}}, {"type": "Feature", "geometry": {"type": "Point", "coordinates": [-1.988239, 5.450396]}, "properties": {"id": "osm_n5535643660", "name": "Unknown"}}, {"type": "Feature", "geometry": {"type": "Point", "coordinates": [-1.99947, 5.363701]}, "properties": {"id": "osm_n5535643741", "name": "Unknown"}}, {"type": "Feature", "geometry": {"type": "Point", "coordinates": [-0.623229, 5.913912]}, "properties": {"id": "osm_n5539020373", "name": "Unknown"}}, {"type": "Feature", "geometry": {"type": "Point", "coordinates": [-0.247756, 5.665212]}, "properties": {"id": "osm_n5544076574", "name": "Unknown"}}, {"type": "Feature", "geometry": {"type": "Point", "coordinates": [-0.298235, 5.702447]}, "properties": {"id": "osm_n5545481291", "name": "Amasaman M.A. School"}}, {"type": "Feature", "geometry": {"type": "Point", "coordinates": [-0.298987, 5.702838]}, "properties": {"id": "osm_n5545486330", "name": "Amasaman D.A Primary"}}, {"type": "Feature", "geometry": {"type": "Point", "coordinates": [-2.569771, 5.611368]}, "properties": {"id": "osm_n5555101138", "name": "Samreboi Basic School"}}, {"type": "Feature", "geometry": {"type": "Point", "coordinates": [-0.263559, 5.816791]}, "properties": {"id": "osm_n5566708817", "name": "Unknown"}}, {"type": "Feature", "geometry": {"type": "Point", "coordinates": [-0.229061, 5.826336]}, "properties": {"id": "osm_n5566709503", "name": "Unknown"}},