{"type": "FeatureCollection", "name": "overture_schools_NER", "features": [{"type": "Feature", "geometry": {"type": "Point", "coordinates": [1.353302, 23.467338]}, "properties": {"id": "eb5ba028-36e7-4c11-9cc1-4dbe87968a7d", "name": "أكاديمية إبداع", "category": "school", "iso": "NER", "country": "Niger", "source": "overture"}}, {"type": "Feature", "geometry": {"type": "Point", "coordinates": [1.312078, 19.305164]}, "properties": {"id": "bcc5709a-d1df-4540-a560-22b24aa0f9dc", "name": "University of Narowal - UON", "category": "college_university", "iso": "NER", "country": "Niger", "source": "overture"}}, {"type": "Feature", "geometry": {"type": "Point", "coordinates": [1.1175, 19.070278]}, "properties": {"id": "0dea4ee2-cedb-4240-af93-09f76eb37cfb", "name": "Rajshahi College", "category": "college_university", "iso": "NER", "country": "Niger", "source": "overture"}}, {"type": "Feature", "geometry": {"type": "Point", "coordinates": [1.078087, 18.110781]}, "properties": {"id": "6dfcdab6-a6d3-49ec-aaad-26e48d15cede", "name": "RPS Convent Public School Nawada", "category": "school", "iso": "NER", "country": "Niger", "source": "overture"}}, {"type": "Feature", "geometry": {"type": "Point", "coordinates": [1.406156, 17.591525]}, "properties": {"id": "fbf56951-5dc6-43c9-8f7a-4c2a3d3230f1", "name": "โรงเรียน อัลฟารูค", "category": "school", "iso": "NER", "country": "Niger", "source": "overture"}}, {"type": "Feature", "geometry": {"type": "Point", "coordinates": [1.4528, 14.2103]}, "properties": {"id": "abbd6bbd-68e6-49c4-a4ec-bd6b717c29f3", "name": "Université de Tillabéri", "category": "college_university", "iso": "NER", "country": "Niger", "source": "overture"}}, {"type": "Feature", "geometry": {"type": "Point", "coordinates": [0.348644, 18.197493]}, "properties": {"id": "72463ba4-59c5-408c-ac22-0dbc44146071", "name": "Smart Eduversity", "category": "education", "iso": "NER", "country": "Niger", "source": "overture"}}, {"type": "Feature", "geometry": {"type": "Point", "coordinates": [0.351562, 17.981861]}, "properties": {"id": "1a6472d4-6983-46f3-9c41-85cf62e149e0", "name": "Short Stories", "category": "education", "iso": "NER", "country": "Niger", "source": "overture"}}, {"type": "Feature", "geometry": {"type": "Point", "coordinates": [0.351562, 19.642588]}, "properties": {"id": "edb48007-dbaa-4fad-9ab9-4ad987162fef", "name": "Shakti Education", "category": "college_university", "iso": "NER", "country": "Niger", "source": "overture"}}, {"type": "Feature", "geometry": {"type": "Point", "coordinates": [0.252583, 11.951855]}, "properties": {"id": "66543091-af85-4340-b606-141abfa45689", "name": "𝐀𝐋-𝐒𝐇𝐈𝐅𝐀 𝐈𝐍𝐒𝐓𝐈𝐓𝐔𝐓𝐄 𝐎𝐅 𝐇𝐄𝐀𝐋𝐓𝐇 𝐒𝐂𝐈𝐄𝐍𝐂𝐄𝐒 𝐍𝐀𝐑𝐎𝐖𝐀𝐋", "category": "college_university", "iso": "NER", "country": "Niger", "source": "overture"}}, {"type": "Feature", "geometry": {"type": "Point", "coordinates": [0.362549, 12.07961]}, "properties": {"id": "b562c844-ba36-4e2e-a90e-a687347dd45f", "name": "Ecole Nationale d’Ingénierie Supérieure de Fada N'Gourma - Ensi-F", "category": "college_university", "iso": "NER", "country": "Niger", "source": "overture"}}, {"type": "Feature", "geometry": {"type": "Point", "coordinates": [0.352421, 12.625629]}, "properties": {"id": "89fe68ec-6c51-4a0a-a54a-61043dce92f6", "name": "Coelho - Inteligência Artificial", "category": "education", "iso": "NER", "country": "Niger", "source": "overture"}}, {"type": "Feature", "geometry": {"type": "Point", "coordinates": [0.650472, 13.651357]}, "properties": {"id": "cbf38c4d-fda2-4b16-8977-e1e8d65924c6", "name": "Colegioparraparis", "category": "school", "iso": "NER", "country": "Niger", "source": "overture"}}, {"type": "Feature", "geometry": {"type": "Point", "coordinates": [1.40625, 12.554564]}, "properties": {"id": "91729a2d-ba96-4ff5-996e-125a5d9b08b9", "name": "Tantipara Nabakishore Vidyaniketan -H.S.", "category": "school", "iso": "NER", "country": "Niger", "source": "overture"}}, {"type": "Feature", "geometry": {"type": "Point", "coordinates": [2.109375, 11.867351]}, "properties": {"id": "f47b122d-56e1-4997-8403-45ad3d705d2e", "name": "HumanaMente Psicopedagoga", "category": "education", "iso": "NER", "country": "Niger", "source": "overture"}}, {"type": "Feature", "geometry": {"type": "Point", "coordinates": [2.30043, 13.24463]}, "properties": {"id": "8a088797-8dbf-4bb0-9a26-4dcb6883d253", "name": "CodeLoccol", "category": "school", "iso": "NER", "country": "Niger", "source": "overture"}}, {"type": "Feature", "geometry": {"type": "Point", "coordinates": [2.34, 13.137]}, "properties": {"id": "bc77ea26-ce2c-43b2-a607-e29b693595b3", "name": "Université populaire de Niamey", "category": "college_university", "iso": "NER", "country": "Niger", "source": "overture"}}, {"type": "Feature", "geometry": {"type": "Point", "coordinates": [2.339607, 13.138099]}, "properties": {"id": "f76d3ace-c57a-4a56-9005-3aaec4259756", "name": "Islamic University of Say", "category": "college_university", "iso": "NER", "country": "Niger", "source": "overture"}}, {"type": "Feature", "geometry": {"type": "Point", "coordinates": [2.34106, 13.136958]}, "properties": {"id": "b2d6c997-47e3-4c2b-959a-eef215ef3aac", "name": "Université islamique de Say", "category": "college_university", "iso": "NER", "country": "Niger", "source": "overture"}}, {"type": "Feature", "geometry": {"type": "Point", "coordinates": [2.435944, 13.933481]}, "properties": {"id": "67e37ff9-fcb0-4b6b-8ea6-56db6bd82091", "name": "Groupe Scolaire Bilingue Innovation, Mpangou, Kribi", "category": "school", "iso": "NER", "country": "Niger", "source": "overture"}}, {"type": "Feature", "geometry": {"type": "Point", "coordinates": [2.8125, 13.581705]}, "properties": {"id": "f59416ea-ad46-49c6-a04f-b4358eb0465e", "name": "Warren Turtles Group", "category": "school", "iso": "NER", "country": "Niger", "source": "overture"}}, {"type": "Feature", "geometry": {"type": "Point", "coordinates": [2.8125, 15.961329]}, "properties": {"id": "b74b1aa9-e893-4705-a8e9-2a7d6b4db3a8", "name": "Stars Language School", "category": "school", "iso": "NER", "country": "Niger", "source": "overture"}}, {"type": "Feature", "geometry": {"type": "Point", "coordinates": [2.45244, 16.756417]}, "properties": {"id": "fa51670e-2314-4fd5-b44a-a84dd7a75eab", "name": "Istituto Tecnico Economico ITE", "category": "school", "iso": "NER", "country": "Niger", "source": "overture"}}, {"type": "Feature", "geometry": {"type": "Point", "coordinates": [2.48051, 17.367754]}, "properties": {"id": "eab3c784-712f-4c24-a366-20d00f25e90f", "name": "Damercap Centro de Entrenamiento y Formación", "category": "education", "iso": "NER", "country": "Niger", "source": "overture"}}, {"type": "Feature", "geometry": {"type": "Point", "coordinates": [2.460938, 17.434511]}, "properties": {"id": "8fed829d-7f12-43bf-8de3-bac669a1b5e8", "name": "Shri Ramji Lal Convent School", "category": "school", "iso": "NER", "country": "Niger", "source": "overture"}}, {"type": "Feature", "geometry": {"type": "Point", "coordinates": [2.145765, 18.236325]}, "properties": {"id": "babc0fe4-018e-493a-a294-459e8f5e2a7d", "name": "PDP Junior", "category": "school", "iso": "NER", "country": "Niger", "source": "overture"}}, {"type": "Feature", "geometry": {"type": "Point", "coordinates": [1.941994, 17.100434]}, "properties": {"id": "a4329c6a-b7df-4f51-adeb-f33e6c606117", "name": "ข่าวสารคณะวิทยาการจัดการ มหาวิทยาลัยราชภัฏอุตรดิตถ์", "category": "college_university", "iso": "NER", "country": "Niger", "source": "overture"}}, {"type": "Feature", "geometry": {"type": "Point", "coordinates": [2.109375, 17.978733]}, "properties": {"id": "fe5429ef-1e1a-4e5f-80a9-eebe368df5d9", "name": "كلية علوم الحاسوب وتكنولوجيا المعلومات /جامعة واسط", "category": "college_university", "iso": "NER", "country": "Niger", "source": "overture"}}, {"type": "Feature", "geometry": {"type": "Point", "coordinates": [2.109375, 17.978733]}, "properties": {"id": "ae0ed00a-4fc3-4740-86fb-fa21b2e6633e", "name": "Pranav School Rajpipla", "category": "school", "iso": "NER", "country": "Niger", "source": "overture"}}, {"type": "Feature", "geometry": {"type": "Point", "coordinates": [2.197266, 13.91274]}, "properties": {"id": "fe6cee47-1d5b-4ec6-8745-c59cdad7c2bd", "name": "ХААИС, Хэрэглээний Шинжлэх Ухааны Сургууль", "category": "college_university", "iso": "NER", "country": "Niger", "source": "overture"}}, {"type": "Feature", "geometry": {"type": "Point", "coordinates": [2.2162, 13.538764]}, "properties": {"id": "d2674911-457c-41fc-be10-8c807330765c", "name": "Crèche et Maternelle Jardin de Soudais", "category": "school", "iso": "NER", "country": "Niger", "source": "overture"}}, {"type": "Feature", "geometry": {"type": "Point", "coordinates": [2.1881, 13.42139]}, "properties": {"id": "824dbaf8-6492-4d43-8275-bf5ad987ae69", "name": "Harouna Souley", "category": "school", "iso": "NER", "country": "Niger", "source": "overture"}}, {"type": "Feature", "geometry": {"type": "Point", "coordinates": [2.1881, 13.4214]}, "properties": {"id": "fdcee062-3e9f-47b7-9f9d-1ed9e6e32168", "name": "Institut DOV", "category": "school", "iso": "NER", "country": "Niger", "source": "overture"}}, {"type": "Feature", "geometry": {"type": "Point", "coordinates": [2.178718, 13.477215]}, "properties": {"id": "aa27c2ee-d856-49f5-8292-69215cf61c32", "name": "Pharmacie as salam", "category": "education", "iso": "NER", "country": "Niger", "source": "overture"}}, {"type": "Feature", "geometry": {"type": "Point", "coordinates": [2.178718, 13.477215]}, "properties": {"id": "baf1f468-6f6e-4535-8f8b-26b41020af3b", "name": "CSP Khadija", "category": "college_university", "iso": "NER", "country": "Niger", "source": "overture"}}, {"type": "Feature", "geometry": {"type": "Point", "coordinates": [2.149552, 13.527964]}, "properties": {"id": "b58c7745-5e2a-4632-9a45-69a97427f8ee", "name": "HAZA Auto-Ecole ", "category": "school", "iso": "NER", "country": "Niger", "source": "overture"}}, {"type": "Feature", "geometry": {"type": "Point", "coordinates": [2.14926, 13.50488]}, "properties": {"id": "6ac84f1a-b28c-4ed4-98df-5827dc84c246", "name": "IIM Université de Niamey", "category": "college_university", "iso": "NER", "country": "Niger", "source": "overture"}}, {"type": "Feature", "geometry": {"type": "Point", "coordinates": [2.144067, 13.516248]}, "properties": {"id": "09c52424-60ba-43d5-9a5a-9c516e2cc66b", "name": "Haute Ecole Privée de Gestion HEPG", "category": "school", "iso": "NER", "country": "Niger", "source": "overture"}}, {"type": "Feature", "geometry": {"type": "Point", "coordinates": [2.141222, 13.511869]}, "properties": {"id": "63425876-ab43-40fc-a667-3de0ef6d2988", "name": "Institut Universitaire de Technologie Privé de Niamey/ Iut/pn", "category": "college_university", "iso": "NER", "country": "Niger", "source": "overture"}}, {"type": "Feature", "geometry": {"type": "Point", "coordinates": [2.1334, 13.501455]}, "properties": {"id": "d5808726-778b-465c-ac9a-0dd5bfdd9a95", "name": "École Coranique Miftahous Sa'ada", "category": "school", "iso": "NER", "country": "Niger", "source": "overture"}}, {"type": "Feature", "geometry": {"type": "Point", "coordinates": [2.13744, 13.502486]}, "properties": {"id": "3dcf527d-7ed4-4e17-b092-8e8a3202f93b", "name": "CES Koira Kano Nord - CEG25", "category": "school", "iso": "NER", "country": "Niger", "source": "overture"}}, {"type": "Feature", "geometry": {"type": "Point", "coordinates": [2.13416, 13.52294]}, "properties": {"id": "002b2274-d902-4fbd-bf4c-be542b94f9cf", "name": "IPAE", "category": "college_university", "iso": "NER", "country": "Niger", "source": "overture"}}, {"type": "Feature", "geometry": {"type": "Point", "coordinates": [2.097852, 13.559832]}, "properties": {"id": "d027bb9a-8e73-4e98-a3c1-fdf88ff5ecf9", "name": "Sup management.Niger", "category": "college_university", "iso": "NER", "country": "Niger", "source": "overture"}}, {"type": "Feature", "geometry": {"type": "Point", "coordinates": [2.09934, 13.54344]}, "properties": {"id": "40d9b6d2-80b6-45fe-a1ee-55e48e5d4c77", "name": "UES Estime", "category": "school", "iso": "NER", "country": "Niger", "source": "overture"}}, {"type": "Feature", "geometry": {"type": "Point", "coordinates": [2.10376, 13.54256]}, "properties": {"id": "1ff6691c-466c-4488-8f47-78a1ff932fe0", "name": "Institut Privé d'Etudes Supérieures et de Langues - IPESL", "category": "school", "iso": "NER", "country": "Niger", "source": "overture"}}, {"type": "Feature", "geometry": {"type": "Point", "coordinates": [2.109644, 13.568943]}, "properties": {"id": "874c6a96-f7f6-4474-ba4a-a94587ac843a", "name": "African Developpement Universalis", "category": "education", "iso": "NER", "country": "Niger", "source": "overture"}}, {"type": "Feature", "geometry": {"type": "Point", "coordinates": [2.108744, 13.562091]}, "properties": {"id": "ddddbf1b-2d48-4c8f-a52f-c18a6739f1fa", "name": "SAbilou Alfalah", "category": "school", "iso": "NER", "country": "Niger", "source": "overture"}}, {"type": "Feature", "geometry": {"type": "Point", "coordinates": [2.11145, 13.545503]}, "properties": {"id": "e426ae45-984f-4a02-9ea7-ed79f27224c3", "name": "Successway Niger", "category": "education", "iso": "NER", "country": "Niger", "source": "overture"}}, {"type": "Feature", "geometry": {"type": "Point", "coordinates": [2.114091, 13.566155]}, "properties": {"id": "58ae08bb-9d63-4274-a066-2387c6e7f0c9", "name": "Université Privée Elite De Niamey - UPEN", "category": "school", "iso": "NER", "country": "Niger", "source": "overture"}}, {"type": "Feature", "geometry": {"type": "Point", "coordinates": [2.116032, 13.553224]}, "properties": {"id": "eff6e459-172f-48d2-8690-6c4b70a83966", "name": "La voix de L'education", "category": "college_university", "iso": "NER", "country": "Niger", "source": "overture"}}, {"type": "Feature", "geometry": {"type": "Point", "coordinates": [2.11756, 13.55328]}, "properties": {"id": "80b0799c-aa3a-4223-8f3e-ad5d93ae0269", "name": "مجمع تهانينت التعليمي بالنيجر", "category": "college_university", "iso": "NER", "country": "Niger", "source": "overture"}}, {"type": "Feature", "geometry": {"type": "Point", "coordinates": [2.132233, 13.510742]}, "properties": {"id": "d1400215-7c0a-499d-86a6-bbf91a1f7c07", "name": "Cet Asni", "category": "school", "iso": "NER", "country": "Niger", "source": "overture"}}, {"type": "Feature", "geometry": {"type": "Point", "coordinates": [2.12177, 13.509955]}, "properties": {"id": "55cbcb53-9459-4259-82f7-d2c26fca6095", "name": "INET [ Institut Nigerien d`Enseignement Technologique ]", "category": "college_university", "iso": "NER", "country": "Niger", "source": "overture"}}, {"type": "Feature", "geometry": {"type": "Point", "coordinates": [2.123804, 13.511924]}, "properties": {"id": "0a2cef0a-0d7a-410b-abc7-2da15d4caabf", "name": "Univers center", "category": "education", "iso": "NER", "country": "Niger", "source": "overture"}}, {"type": "Feature", "geometry": {"type": "Point", "coordinates": [2.125152, 13.51793]}, "properties": {"id": "0cf55738-c12e-4c34-86b8-8aefed4d0712", "name": "ETEC Niamey", "category": "college_university", "iso": "NER", "country": "Niger", "source": "overture"}}, {"type": "Feature", "geometry": {"type": "Point", "coordinates": [2.126654, 13.514652]}, "properties": {"id": "64a72c47-f6fc-4568-98fe-0bbdb658b86d", "name": "I.P.H.E.C", "category": "college_university", "iso": "NER", "country": "Niger", "source": "overture"}}, {"type": "Feature", "geometry": {"type": "Point", "coordinates": [2.125107, 13.537054]}, "properties": {"id": "9c4e902d-5d11-49e9-bbc3-17fca837a383", "name": "Swiss UMEF University of Niger", "category": "college_university", "iso": "NER", "country": "Niger", "source": "overture"}}, {"type": "Feature", "geometry": {"type": "Point", "coordinates": [2.11626, 13.51634]}, "properties": {"id": "be7c020f-e118-4689-92fa-b7860a65af2b", "name": "ESCEP_Niger", "category": "school", "iso": "NER", "country": "Niger", "source": "overture"}}, {"type": "Feature", "geometry": {"type": "Point", "coordinates": [2.11627, 13.51633]}, "properties": {"id": "e989f121-08cf-4635-9d0a-079f4623524b", "name": "ABC académie", "category": "school", "iso": "NER", "country": "Niger", "source": "overture"}}, {"type": "Feature", "geometry": {"type": "Point", "coordinates": [2.11667, 13.5167]}, "properties": {"id": "a93ba8d0-4029-4d97-8a91-20ee0b3a34d3", "name": "MALI BERO", "category": "school", "iso": "NER", "country": "Niger", "source": "overture"}}, {"type": "Feature", "geometry": {"type": "Point", "coordinates": [2.11667, 13.5167]}, "properties": {"id": "86b9fd8d-0048-4a6d-82db-31b09e9002ae", "name": "L'école de santé ISESS", "category": "school", "iso": "NER", "country": "Niger", "source": "overture"}}, {"type": "Feature", "geometry": {"type": "Point", "coordinates": [2.11667, 13.5167]}, "properties": {"id": "30c98305-2ec0-4c3b-b183-ec4bdd870d6a", "name": "Complexe Scolaire Evangelique Prive Peniel", "category": "school", "iso": "NER", "country": "Niger", "source": "overture"}}, {"type": "Feature", "geometry": {"type": "Point", "coordinates": [2.116385, 13.516259]}, "properties": {"id": "37abe394-cbcf-4b99-afd9-ab9cb26e4d07", "name": "ESPIM", "category": "college_university", "iso": "NER", "country": "Niger", "source": "overture"}}, {"type": "Feature", "geometry": {"type": "Point", "coordinates": [2.116385, 13.516259]}, "properties": {"id": "e5483023-6f87-4409-88af-d1740faa83fc", "name": "Series House", "category": "school", "iso": "NER", "country": "Niger", "source": "overture"}}, {"type": "Feature", "geometry": {"type": "Point", "coordinates": [2.116366, 13.516288]}, "properties": {"id": "7a1d2d01-eab1-4a23-bc85-9d071c329c6a", "name": "Institut Africain de Gestion & Technologie Niamey ", "category": "college_university", "iso": "NER", "country": "Niger", "source": "overture"}}, {"type": "Feature", "geometry": {"type": "Point", "coordinates": [2.116366, 13.516288]}, "properties": {"id": "98580b80-c4dd-4e71-82c5-ecf5bd30c21f", "name": "RP WEC English club", "category": "education", "iso": "NER", "country": "Niger", "source": "overture"}}, {"type": "Feature", "geometry": {"type": "Point", "coordinates": [2.116385, 13.516259]}, "properties": {"id": "647334b5-e304-4347-b1f7-e6afea1b8b4c", "name": "SP-Formation", "category": "education", "iso": "NER", "country": "Niger", "source": "overture"}}, {"type": "Feature", "geometry": {"type": "Point", "coordinates": [2.11542, 13.51479]}, "properties": {"id": "57aafc4e-2525-4fe8-990c-a429dca903a0", "name": "IBMT Niger/Niamey", "category": "college_university", "iso": "NER", "country": "Niger", "source": "overture"}}, {"type": "Feature", "geometry": {"type": "Point", "coordinates": [2.11538, 13.51475]}, "properties": {"id": "11a05ad4-5880-48f4-8b63-665f1f8810e3", "name": "جامعة الوفاق الدولية -Upei", "category": "college_university", "iso": "NER", "country": "Niger", "source": "overture"}}, {"type": "Feature", "geometry": {"type": "Point", "coordinates": [2.112937, 13.534152]}, "properties": {"id": "362bd360-3396-4529-afbe-b194436eba9e", "name": "Hecf Niger.", "category": "college_university", "iso": "NER", "country": "Niger", "source": "overture"}}, {"type": "Feature", "geometry": {"type": "Point", "coordinates": [2.11416, 13.50508]}, "properties": {"id": "8c49c94a-5bca-4037-81b7-ca2635d0a8bc", "name": "HETEC Niamey", "category": "college_university", "iso": "NER", "country": "Niger", "source": "overture"}}, {"type": "Feature", "geometry": {"type": "Point", "coordinates": [2.105939, 13.508744]}, "properties": {"id": "c3cedfb7-4161-430f-84d6-a12037c7177a", "name": "UTI", "category": "college_university", "iso": "NER", "country": "Niger", "source": "overture"}}, {"type": "Feature", "geometry": {"type": "Point", "coordinates": [2.106205, 13.508879]}, "properties": {"id": "94d2b869-33c5-4278-8bf5-b767a2c03ac6", "name": "مركز الصحابة للدعوة والإرشاد بنيامي جمهورية النيجر", "category": "college_university", "iso": "NER", "country": "Niger", "source": "overture"}}, {"type": "Feature", "geometry": {"type": "Point", "coordinates": [2.109823, 13.516988]}, "properties": {"id": "82b0bfe9-b051-40a9-af45-6aca0b7ca233", "name": "C.L.A.B(school)", "category": "school", "iso": "NER", "country": "Niger", "source": "overture"}}, {"type": "Feature", "geometry": {"type": "Point", "coordinates": [2.10698, 13.522102]}, "properties": {"id": "c1e750c9-24fe-486b-af86-e4735d015f40", "name": "Ecole Supérieure des Télécommunications - EST", "category": "school", "iso": "NER", "country": "Niger", "source": "overture"}}, {"type": "Feature", "geometry": {"type": "Point", "coordinates": [2.106026, 13.523915]}, "properties": {"id": "8e6f5e5d-88bc-4df9-91bd-4f692ecb9ec6", "name": "Ena", "category": "school", "iso": "NER", "country": "Niger", "source": "overture"}}, {"type": "Feature", "geometry": {"type": "Point", "coordinates": [2.10413, 13.52763]}, "properties": {"id": "d4415a83-2863-4dbf-b005-b2e65110f7c6", "name": "Centre des Metiers du Cuir et D'Art du Niger (CMCAN)", "category": "education", "iso": "NER", "country": "Niger", "source": "overture"}}, {"type": "Feature", "geometry": {"type": "Point", "coordinates": [2.101586, 13.52499]}, "properties": {"id": "63d6bae8-8325-4567-b053-685f16bab68c", "name": "UIN - Université Internationale de Niamey", "category": "college_university", "iso": "NER", "country": "Niger", "source": "overture"}}, {"type": "Feature", "geometry": {"type": "Point", "coordinates": [2.103555, 13.520694]}, "properties": {"id": "6fed7b0f-c81b-464c-9ff1-4332dc240839", "name": "Université Abdou Moumouni de Niamey", "category": "college_university", "iso": "NER", "country": "Niger", "source": "overture"}}, {"type": "Feature", "geometry": {"type": "Point", "coordinates": [2.104, 13.5]}, "properties": {"id": "deef2d73-134c-446e-897d-5809368ffa03", "name": "Sahel Academy", "category": "school", "iso": "NER", "country": "Niger", "source": "overture"}}, {"type": "Feature", "geometry": {"type": "Point", "coordinates": [2.10089, 13.51348]}, "properties": {"id": "ec43422f-10b1-4e45-afe9-c8ba2737914e", "name": "Université islamique campus de Niamey ", "category": "school", "iso": "NER", "country": "Niger", "source": "overture"}}, {"type": "Feature", "geometry": {"type": "Point", "coordinates": [2.101306, 13.517441]}, "properties": {"id": "b1a47749-a71e-4c22-99ae-f8cd583ca5b3", "name": "Madiba School", "category": "school", "iso": "NER", "country": "Niger", "source": "overture"}}, {"type": "Feature", "geometry": {"type": "Point", "coordinates": [2.101261, 13.520917]}, "properties": {"id": "ca61482a-b0f1-44df-b3d6-bfb292bb1651", "name": "Lycée La Fontaine", "category": "school", "iso": "NER", "country": "Niger", "source": "overture"}}, {"type": "Feature", "geometry": {"type": "Point", "coordinates": [2.098528, 13.501361]}, "properties": {"id": "e526176c-2414-4b98-bf8a-3f22ec6ae873", "name": "Abdou Moumouni University", "category": "college_university", "iso": "NER", "country": "Niger", "source": "overture"}}, {"type": "Feature", "geometry": {"type": "Point", "coordinates": [2.090412, 13.503431]}, "properties": {"id": "18bc3089-f44a-4856-b15a-7119e3fd71c5", "name": "Université de Niamey", "category": "college_university", "iso": "NER", "country": "Niger", "source": "overture"}}, {"type": "Feature", "geometry": {"type": "Point", "coordinates": [2.083819, 13.521739]}, "properties": {"id": "7f7021dc-6572-4b49-ac57-bcde3e54dc31", "name": "UTI-Niger", "category": "college_university", "iso": "NER", "country": "Niger", "source": "overture"}}, {"type": "Feature", "geometry": {"type": "Point", "coordinates": [2.087323, 13.501894]}, "properties": {"id": "57813f2a-19ef-4ab8-bc40-f69da3a2496b", "name": "EMIG", "category": "college_university", "iso": "NER", "country": "Niger", "source": "overture"}}, {"type": "Feature", "geometry": {"type": "Point", "coordinates": [2.087353, 13.501195]}, "properties": {"id": "0ebc3f28-7b05-408d-88fe-ce6b1586b473", "name": "École des mines, de l'industrie et de la géologie", "category": "college_university", "iso": "NER", "country": "Niger", "source": "overture"}}, {"type": "Feature", "geometry": {"type": "Point", "coordinates": [2.076586, 13.506115]}, "properties": {"id": "bfed7616-5f8d-4b20-995c-666da29f4cca", "name": "CSP l'ile des petits anges", "category": "school", "iso": "NER", "country": "Niger", "source": "overture"}}, {"type": "Feature", "geometry": {"type": "Point", "coordinates": [2.08159, 13.532314]}, "properties": {"id": "f371fbb6-3b82-4783-a78b-bbbb50fccaff", "name": "IAT Niger", "category": "college_university", "iso": "NER", "country": "Niger", "source": "overture"}}, {"type": "Feature", "geometry": {"type": "Point", "coordinates": [2.074748, 13.538012]}, "properties": {"id": "a0e01817-2247-44e2-a023-7c7023df3656", "name": "Complex School Tayamana", "category": "school", "iso": "NER", "country": "Niger", "source": "overture"}}, {"type": "Feature", "geometry": {"type": "Point", "coordinates": [2.07459, 13.526724]}, "properties": {"id": "f4540751-e981-4231-8dc0-46a00b1cd547", "name": "American International School of Niamey", "category": "school", "iso": "NER", "country": "Niger", "source": "overture"}}, {"type": "Feature", "geometry": {"type": "Point", "coordinates": [2.074176, 13.52408]}, "properties": {"id": "844aca6d-671c-4888-8e88-8d7b61aa921a", "name": "Institut santé publique", "category": "school", "iso": "NER", "country": "Niger", "source": "overture"}}, {"type": "Feature", "geometry": {"type": "Point", "coordinates": [2.068129, 13.525557]}, "properties": {"id": "4d5bab61-a4a7-486e-b56a-547a629d508b", "name": "Strat-CorePlus sarl", "category": "college_university", "iso": "NER", "country": "Niger", "source": "overture"}}, {"type": "Feature", "geometry": {"type": "Point", "coordinates": [2.06723, 13.53454]}, "properties": {"id": "204629b8-9346-4ffd-962f-4155fd555a06", "name": "CSP Le Zénith", "category": "school", "iso": "NER", "country": "Niger", "source": "overture"}}, {"type": "Feature", "geometry": {"type": "Point", "coordinates": [2.054231, 13.561968]}, "properties": {"id": "af8f7730-cb3e-4dd5-a9bb-c513841251ea", "name": "Cabinet Leader d'Afrique", "category": "education", "iso": "NER", "country": "Niger", "source": "overture"}}, {"type": "Feature", "geometry": {"type": "Point", "coordinates": [2.060552, 13.551887]}, "properties": {"id": "581d26f7-aed3-4792-be6d-4c7648815140", "name": "LUCAS", "category": "college_university", "iso": "NER", "country": "Niger", "source": "overture"}}, {"type": "Feature", "geometry": {"type": "Point", "coordinates": [2.082479, 13.540852]}, "properties": {"id": "a4791948-6792-47ed-8a51-38f70061efc0", "name": "ESPA MT", "category": "college_university", "iso": "NER", "country": "Niger", "source": "overture"}}, {"type": "Feature", "geometry": {"type": "Point", "coordinates": [2.086134, 13.582242]}, "properties": {"id": "93370d50-4449-4288-b6cd-8c692c9ad482", "name": "CSP ADRA", "category": "school", "iso": "NER", "country": "Niger", "source": "overture"}}, {"type": "Feature", "geometry": {"type": "Point", "coordinates": [2.022637, 13.551083]}, "properties": {"id": "cd483d93-cfb0-49a1-a4a7-4e1dcbdc227c", "name": "American International School of Niamey", "category": "school", "iso": "NER", "country": "Niger", "source": "overture"}}, {"type": "Feature", "geometry": {"type": "Point", "coordinates": [1.975136, 13.7754]}, "properties": {"id": "2b1bc2c5-16bb-49d6-89d6-09124af724bd", "name": "Université Privée Diaba Lompo", "category": "college_university", "iso": "NER", "country": "Niger", "source": "overture"}}, {"type": "Feature", "geometry": {"type": "Point", "coordinates": [1.757812, 14.604847]}, "properties": {"id": "09d5a328-d5d5-48e3-bd3e-864b2350fd69", "name": "Rose Garden Grammar School.", "category": "school", "iso": "NER", "country": "Niger", "source": "overture"}}, {"type": "Feature", "geometry": {"type": "Point", "coordinates": [1.763137, 17.988203]}, "properties": {"id": "4090a994-3f58-4303-bc6c-de8c66b0365f", "name": "Complexe Scolaire Mamadou Mouctar Ba - CSMMB", "category": "school", "iso": "NER", "country": "Niger", "source": "overture"}}, {"type": "Feature", "geometry": {"type": "Point", "coordinates": [1.953097, 20.997912]}, "properties": {"id": "0103e937-b8b2-4185-ae7b-cfb7e2c69358", "name": "Faculté des Sciences et Techniques de Fès FSTF", "category": "college_university", "iso": "NER", "country": "Niger", "source": "overture"}}, {"type": "Feature", "geometry": {"type": "Point", "coordinates": [3.515625, 21.943046]}, "properties": {"id": "5aa30b3a-a628-4690-a2e8-46226db68957", "name": "กวดวิชาครูอ้อมครูป้อม", "category": "education", "iso": "NER", "country": "Niger", "source": "overture"}}, {"type": "Feature", "geometry": {"type": "Point", "coordinates": [4.004737, 21.927238]}, "properties": {"id": "648eb9f0-83ad-4d35-a1d8-2e1433bc5aed", "name": "Ümraniye Açı Eğitim", "category": "school", "iso": "NER", "country": "Niger", "source": "overture"}}, {"type": "Feature", "geometry": {"type": "Point", "coordinates": [4.302864, 19.641456]}, "properties": {"id": "2bb48e7d-cfe2-454e-ade0-bbcdcceb7dd9", "name": "โรงเรียนชุมชนดงสว่างหนองแซง", "category": "school", "iso": "NER", "country": "Niger", "source": "overture"}}, {"type": "Feature", "geometry": {"type": "Point", "coordinates": [4.21875, 16.636192]}, "properties": {"id": "4db8d4bc-504a-4bde-b9a3-6f1f3aafce72", "name": "Sudeep Language Tutorials", "category": "college_university", "iso": "NER", "country": "Niger", "source": "overture"}}, {"type": "Feature", "geometry": {"type": "Point", "coordinates": [3.878174, 16.088042]}, "properties": {"id": "3c8213b1-916e-413d-a1ab-cddbb3f2a66e", "name": "Shri Jain Diwakar Mahavidhyalaya, Indore", "category": "education", "iso": "NER", "country": "Niger", "source": "overture"}}, {"type": "Feature", "geometry": {"type": "Point", "coordinates": [3.877321, 19.44205]}, "properties": {"id": "1084c55c-fe80-4f57-a715-92d5469cde65", "name": "KDS Academy", "category": "school", "iso": "NER", "country": "Niger", "source": "overture"}}, {"type": "Feature", "geometry": {"type": "Point", "coordinates": [3.726425, 19.374636]}, "properties": {"id": "71053ec4-f1ac-4eda-87b9-1796d4ed6bc0", "name": "Sitara Institute of Management & Technology", "category": "college_university", "iso": "NER", "country": "Niger", "source": "overture"}}, {"type": "Feature", "geometry": {"type": "Point", "coordinates": [3.515625, 11.867351]}, "properties": {"id": "2b41f9b2-2199-44e4-a85e-c051109c837e", "name": "Biga College of Education, Sokoto", "category": "college_university", "iso": "NER", "country": "Niger", "source": "overture"}}, {"type": "Feature", "geometry": {"type": "Point", "coordinates": [3.65688, 11.849635]}, "properties": {"id": "f44a5285-9eee-4a35-8737-b6565079f8f4", "name": "Acaais Institute Of Education Kamba", "category": "college_university", "iso": "NER", "country": "Niger", "source": "overture"}}, {"type": "Feature", "geometry": {"type": "Point", "coordinates": [3.65688, 11.849635]}, "properties": {"id": "4ca5d4c7-b724-4f66-bb7a-36877cf2cbae", "name": "Abdussalami Centre For Advance Studies ACAS", "category": "college_university", "iso": "NER", "country": "Niger", "source": "overture"}}, {"type": "Feature", "geometry": {"type": "Point", "coordinates": [3.164062, 12.554564]}, "properties": {"id": "8b4cd5ff-73ca-4b0c-9672-b632811a68d0", "name": "Maidik Schools", "category": "school", "iso": "NER", "country": "Niger", "source": "overture"}}, {"type": "Feature", "geometry": {"type": "Point", "coordinates": [3.193254, 13.052442]}, "properties": {"id": "2e753393-eae9-4400-beea-90b6c9f6d9b8", "name": "INETE", "category": "college_university", "iso": "NER", "country": "Niger", "source": "overture"}}, {"type": "Feature", "geometry": {"type": "Point", "coordinates": [3.19472, 13.0444]}, "properties": {"id": "6669a584-15f5-4427-97c1-71eaaed267a3", "name": "Medersa Ibnoul Kassoum مدرسة ابن القاسم", "category": "school", "iso": "NER", "country": "Niger", "source": "overture"}}, {"type": "Feature", "geometry": {"type": "Point", "coordinates": [3.160081, 13.051668]}, "properties": {"id": "fce5f9ce-96c1-499d-b54c-1a917f0326dc", "name": "Université de Dosso", "category": "college_university", "iso": "NER", "country": "Niger", "source": "overture"}}, {"type": "Feature", "geometry": {"type": "Point", "coordinates": [3.936233, 11.725975]}, "properties": {"id": "8dfd5ee6-912e-45ca-9be3-242be44c42c1", "name": "Djevojčice sa klikerima", "category": "education", "iso": "NER", "country": "Niger", "source": "overture"}}, {"type": "Feature", "geometry": {"type": "Point", "coordinates": [3.866329, 12.00211]}, "properties": {"id": "2e6990d2-479e-4914-ae32-47973fc08d6e", "name": "Unifahe Polo S. José Dos Campos", "category": "college_university", "iso": "NER", "country": "Niger", "source": "overture"}}, {"type": "Feature", "geometry": {"type": "Point", "coordinates": [4.11379, 12.50569]}, "properties": {"id": "00dbafc5-5e66-46ab-a646-faca2d49f8d5", "name": "Adamu Gulma Model Pri, School", "category": "school", "iso": "NER", "country": "Niger", "source": "overture"}}, {"type": "Feature", "geometry": {"type": "Point", "coordinates": [4.11379, 12.50569]}, "properties": {"id": "8ae729b2-5f89-4cab-85e8-249acac53a55", "name": "Sufiyanu Aliyu Kambaza", "category": "college_university", "iso": "NER", "country": "Niger", "source": "overture"}}, {"type": "Feature", "geometry": {"type": "Point", "coordinates": [4.12923, 12.51237]}, "properties": {"id": "e24f7273-5c75-4f15-abd4-ce68183fb0ad", "name": "Sarki abdullahi college b/yauri", "category": "college_university", "iso": "NER", "country": "Niger", "source": "overture"}}, {"type": "Feature", "geometry": {"type": "Point", "coordinates": [4.192294, 12.413936]}, "properties": {"id": "49300523-94c2-468f-b64a-e51de4b9525f", "name": "Federal University Birnin Kebbi", "category": "college_university", "iso": "NER", "country": "Niger", "source": "overture"}}, {"type": "Feature", "geometry": {"type": "Point", "coordinates": [4.18986, 12.44699]}, "properties": {"id": "4edb45e0-493f-45fe-8c9f-5f3aafc381f0", "name": "GTC Wasagu Old Boys Association", "category": "college_university", "iso": "NER", "country": "Niger", "source": "overture"}}, {"type": "Feature", "geometry": {"type": "Point", "coordinates": [4.19234, 12.45415]}, "properties": {"id": "c6c88927-43ec-4e4e-93cc-630f55efef86", "name": "Christian Music School, Birnin Kebbi", "category": "school", "iso": "NER", "country": "Niger", "source": "overture"}}, {"type": "Feature", "geometry": {"type": "Point", "coordinates": [4.19157, 12.4573]}, "properties": {"id": "2bc8fd41-649b-43b8-b715-37a2bee88e39", "name": "Habeel Community Development College Birnin Kebbi", "category": "college_university", "iso": "NER", "country": "Niger", "source": "overture"}}, {"type": "Feature", "geometry": {"type": "Point", "coordinates": [4.199728, 12.452714]}, "properties": {"id": "e9048de2-8864-492a-896a-2f653327bb88", "name": "Kebbi State College Of Nursing Science Birnin Kebbi", "category": "college_university", "iso": "NER", "country": "Niger", "source": "overture"}}, {"type": "Feature", "geometry": {"type": "Point", "coordinates": [4.19631, 12.45958]}, "properties": {"id": "e3917ca9-3d3e-4876-9bfd-781d3d4dafb0", "name": "National teachers' institute, Kebbi state branch.", "category": "education", "iso": "NER", "country": "Niger", "source": "overture"}}, {"type": "Feature", "geometry": {"type": "Point", "coordinates": [4.19528, 12.45518]}, "properties": {"id": "7841909d-8cf8-4419-a3fb-a58d0c5ad4b4", "name": "Government Girls College", "category": "college_university", "iso": "NER", "country": "Niger", "source": "overture"}}, {"type": "Feature", "geometry": {"type": "Point", "coordinates": [4.197149, 12.459781]}, "properties": {"id": "695eb45c-efa9-447c-a427-6a7aca91e27c", "name": "Remlad City Schools", "category": "school", "iso": "NER", "country": "Niger", "source": "overture"}}, {"type": "Feature", "geometry": {"type": "Point", "coordinates": [4.1975, 12.4539]}, "properties": {"id": "6318f89c-e6b2-45b4-bcec-1efaa2afda84", "name": "De- Ultimate Private Schools", "category": "school", "iso": "NER", "country": "Niger", "source": "overture"}}, {"type": "Feature", "geometry": {"type": "Point", "coordinates": [4.20358, 12.44748]}, "properties": {"id": "d0ef16eb-867d-4b23-b8b3-098e7b88d976", "name": "D 7 Computer Training Institute", "category": "school", "iso": "NER", "country": "Niger", "source": "overture"}}, {"type": "Feature", "geometry": {"type": "Point", "coordinates": [4.202291, 12.468154]}, "properties": {"id": "467a6aad-54eb-4460-a9ae-757041a0c107", "name": "Government Day Secondary School Birnin Kebbi", "category": "school", "iso": "NER", "country": "Niger", "source": "overture"}}, {"type": "Feature", "geometry": {"type": "Point", "coordinates": [4.209973, 12.45943]}, "properties": {"id": "08b7e9db-aba4-490c-86e9-cbafcb756b7e", "name": "Joda International School", "category": "school", "iso": "NER", "country": "Niger", "source": "overture"}}, {"type": "Feature", "geometry": {"type": "Point", "coordinates": [4.207407, 12.450326]}, "properties": {"id": "d164991c-e684-43ae-a98f-8791e6653490", "name": "Basauba Institute Of Comprehensive Education Kebbi", "category": "school", "iso": "NER", "country": "Niger", "source": "overture"}}, {"type": "Feature", "geometry": {"type": "Point", "coordinates": [4.210068, 12.43963]}, "properties": {"id": "b75be50a-61f9-4561-bf22-4c33e69a141d", "name": "Realpress Institute of Journalism & Entrepreneurship Studies-RIJES", "category": "college_university", "iso": "NER", "country": "Niger", "source": "overture"}}, {"type": "Feature", "geometry": {"type": "Point", "coordinates": [4.200758, 12.383636]}, "properties": {"id": "0ff9fa44-f047-4fad-b13c-229a6db6cfeb", "name": "Rayhaan Model Academy", "category": "school", "iso": "NER", "country": "Niger", "source": "overture"}}, {"type": "Feature", "geometry": {"type": "Point", "coordinates": [4.212027, 12.448138]}, "properties": {"id": "51cab8b6-021f-47f4-81f6-9210c1e33d61", "name": "Markazul Hadaratil Islamiyya, Birnin-Kebbi", "category": "school", "iso": "NER", "country": "Niger", "source": "overture"}}, {"type": "Feature", "geometry": {"type": "Point", "coordinates": [4.212027, 12.448138]}, "properties": {"id": "402ca8c8-ea52-4ee1-b2f3-803d60b45c4d", "name": "Cutting-Edge International Academy", "category": "school", "iso": "NER", "country": "Niger", "source": "overture"}}, {"type": "Feature", "geometry": {"type": "Point", "coordinates": [4.212412, 12.455286]}, "properties": {"id": "727676d8-ed5c-418d-85cd-426a40a01528", "name": "Deenway Islamic School Birnin-Kebbi", "category": "school", "iso": "NER", "country": "Niger", "source": "overture"}}, {"type": "Feature", "geometry": {"type": "Point", "coordinates": [4.383643, 12.239399]}, "properties": {"id": "7d46e8fa-e6ca-483e-9a2b-6d9c8583842d", "name": "Kebbi State School of Health Technology Jega", "category": "college_university", "iso": "NER", "country": "Niger", "source": "overture"}}, {"type": "Feature", "geometry": {"type": "Point", "coordinates": [4.378943, 12.21838]}, "properties": {"id": "a7253f03-18d3-4aea-82c3-95a6982340f8", "name": "Gdss Jega Page", "category": "education", "iso": "NER", "country": "Niger", "source": "overture"}}, {"type": "Feature", "geometry": {"type": "Point", "coordinates": [7.51208, 11.67391]}, "properties": {"id": "cd899fb6-4108-4e70-b929-c939c2809490", "name": "ALNAB Academy Malumfashi ", "category": "education", "iso": "NER", "country": "Niger", "source": "overture"}}, {"type": "Feature", "geometry": {"type": "Point", "coordinates": [9.925447, 11.674148]}, "properties": {"id": "dca270be-cb69-4601-a010-5d65d8fffa43", "name": "An-Nuur Academy Jama'are", "category": "education", "iso": "NER", "country": "Niger", "source": "overture"}}, {"type": "Feature", "geometry": {"type": "Point", "coordinates": [9.927888, 11.671575]}, "properties": {"id": "1bc1f67e-01be-4c45-ab96-00778a539f68", "name": "Manu memorial schools", "category": "school", "iso": "NER", "country": "Niger", "source": "overture"}}, {"type": "Feature", "geometry": {"type": "Point", "coordinates": [10.194745, 11.671296]}, "properties": {"id": "dfa7a91b-3a77-4857-966d-67e6fe191ad6", "name": "Abdullahi Memorial School Azare", "category": "school", "iso": "NER", "country": "Niger", "source": "overture"}}, {"type": "Feature", "geometry": {"type": "Point", "coordinates": [10.1911, 11.6742]}, "properties": {"id": "97984504-b02e-4ec4-b414-1d46f6f674eb", "name": "Demonstration Secondary School Azare 09 Set", "category": "school", "iso": "NER", "country": "Niger", "source": "overture"}}, {"type": "Feature", "geometry": {"type": "Point", "coordinates": [10.1911, 11.6742]}, "properties": {"id": "6c28d27f-9f3f-4c2d-86ce-4d9af858f0dc", "name": "Al-Amin Academy Azare", "category": "school", "iso": "NER", "country": "Niger", "source": "overture"}}, {"type": "Feature", "geometry": {"type": "Point", "coordinates": [10.1911, 11.6742]}, "properties": {"id": "e6c3e8a8-c356-4ce6-9df7-971422f50ef7", "name": "Royal International College Of Health And Social Sciences", "category": "college_university", "iso": "NER", "country": "Niger", "source": "overture"}}, {"type": "Feature", "geometry": {"type": "Point", "coordinates": [10.192784, 11.675261]}, "properties": {"id": "f48e1668-bed0-4158-85ae-4534d60027b7", "name": "Ascoe Azare school of science", "category": "education", "iso": "NER", "country": "Niger", "source": "overture"}}, {"type": "Feature", "geometry": {"type": "Point", "coordinates": [10.192784, 11.675261]}, "properties": {"id": "d04269d6-aa03-4603-9075-745b73ab550b", "name": "Federal Government College, FGC Azare", "category": "college_university", "iso": "NER", "country": "Niger", "source": "overture"}}, {"type": "Feature", "geometry": {"type": "Point", "coordinates": [10.19271, 11.67472]}, "properties": {"id": "a81f2d4f-c649-49f0-a631-76db3bc42ba2", "name": "IHSAN College of Health Science and Technology Azare", "category": "college_university", "iso": "NER", "country": "Niger", "source": "overture"}}, {"type": "Feature", "geometry": {"type": "Point", "coordinates": [10.19271, 11.67472]}, "properties": {"id": "09ced0cc-5761-4f25-979f-12ea2d027b73", "name": "Isawa", "category": "college_university", "iso": "NER", "country": "Niger", "source": "overture"}}, {"type": "Feature", "geometry": {"type": "Point", "coordinates": [10.19271, 11.67472]}, "properties": {"id": "79b4e5fd-8209-4ea1-bcba-44a04f9ebd54", "name": "Government Day Secondary School Azare", "category": "school", "iso": "NER", "country": "Niger", "source": "overture"}}, {"type": "Feature", "geometry": {"type": "Point", "coordinates": [10.164862, 11.678958]}, "properties": {"id": "30b34d71-96db-484e-b3c4-eca252bcda74", "name": "National Open University Azare Branch", "category": "college_university", "iso": "NER", "country": "Niger", "source": "overture"}}, {"type": "Feature", "geometry": {"type": "Point", "coordinates": [10.202102, 11.684797]}, "properties": {"id": "8aa5efe4-20f7-42c6-8363-c446c3b30ffb", "name": "Badala Academy, Azare", "category": "school", "iso": "NER", "country": "Niger", "source": "overture"}}, {"type": "Feature", "geometry": {"type": "Point", "coordinates": [9.3461, 11.686904]}, "properties": {"id": "fb2090ef-7e09-44f8-bad1-2e16585848c4", "name": "Elpis International School", "category": "school", "iso": "NER", "country": "Niger", "source": "overture"}}, {"type": "Feature", "geometry": {"type": "Point", "coordinates": [9.328628, 11.69522]}, "properties": {"id": "faddec9a-088b-4003-bfd6-985882f26124", "name": "al_niima_academy", "category": "school", "iso": "NER", "country": "Niger", "source": "overture"}}, {"type": "Feature", "geometry": {"type": "Point", "coordinates": [9.34993, 11.6942]}, "properties": {"id": "55198b6b-3dd9-4165-9f6e-d5eb3d5887a1", "name": "Munajis Academy", "category": "school", "iso": "NER", "country": "Niger", "source": "overture"}}, {"type": "Feature", "geometry": {"type": "Point", "coordinates": [9.36735, 11.708751]}, "properties": {"id": "b60639e6-2323-4e19-b9c1-6a13d2f07e8d", "name": "Federal University Dutse", "category": "college_university", "iso": "NER", "country": "Niger", "source": "overture"}}, {"type": "Feature", "geometry": {"type": "Point", "coordinates": [9.364698, 11.708996]}, "properties": {"id": "831650af-6b5d-4f63-b8b5-13a235e13eff", "name": "Centre for Arid Zone  and Wetlands Ecology -CAWE, Federal University Dutse", "category": "college_university", "iso": "NER", "country": "Niger", "source": "overture"}}, {"type": "Feature", "geometry": {"type": "Point", "coordinates": [9.362285, 11.707606]}, "properties": {"id": "95a17c84-f3d9-483e-8528-7b4791981002", "name": "Federal University Dutse", "category": "college_university", "iso": "NER", "country": "Niger", "source": "overture"}}, {"type": "Feature", "geometry": {"type": "Point", "coordinates": [9.46789, 11.70352]}, "properties": {"id": "18323a72-6305-4bde-a962-7e3bdad8dfab", "name": "Jamilu jibrin", "category": "college_university", "iso": "NER", "country": "Niger", "source": "overture"}}, {"type": "Feature", "geometry": {"type": "Point", "coordinates": [9.346206, 11.713126]}, "properties": {"id": "8a3816f3-1844-4df8-b8f7-8a48607b3d8c", "name": "Swanford School Dutse", "category": "education", "iso": "NER", "country": "Niger", "source": "overture"}}, {"type": "Feature", "geometry": {"type": "Point", "coordinates": [9.355629, 11.716523]}, "properties": {"id": "0ef864a8-5d45-461e-82a7-e0be21ed9b41", "name": "Jigawa State Polytechnic", "category": "college_university", "iso": "NER", "country": "Niger", "source": "overture"}}, {"type": "Feature", "geometry": {"type": "Point", "coordinates": [9.352129, 11.7236]}, "properties": {"id": "6d3faa56-00d3-466e-93eb-1575f8e93bb0", "name": "Zai Primary and Secondary School", "category": "school", "iso": "NER", "country": "Niger", "source": "overture"}}, {"type": "Feature", "geometry": {"type": "Point", "coordinates": [9.360753, 11.72518]}, "properties": {"id": "d76e7bb3-aa1d-4b67-b9b0-216b6570a85d", "name": "Federal University Dutse media HUB", "category": "college_university", "iso": "NER", "country": "Niger", "source": "overture"}}, {"type": "Feature", "geometry": {"type": "Point", "coordinates": [9.367328, 11.721267]}, "properties": {"id": "6dcf4fb8-4f51-49c1-88f8-0a7215c176f6", "name": "Government day senior secondary school Galamawa class of 2020", "category": "school", "iso": "NER", "country": "Niger", "source": "overture"}}, {"type": "Feature", "geometry": {"type": "Point", "coordinates": [9.359911, 11.719229]}, "properties": {"id": "eb86a37d-a20f-4406-8707-a41ed1b835be", "name": "Alniima Academy", "category": "education", "iso": "NER", "country": "Niger", "source": "overture"}}, {"type": "Feature", "geometry": {"type": "Point", "coordinates": [9.359911, 11.719229]}, "properties": {"id": "00b12df6-d4b9-4e16-a279-dfcb5e67c4a4", "name": "Biological science department, F.U.D chapter", "category": "college_university", "iso": "NER", "country": "Niger", "source": "overture"}}, {"type": "Feature", "geometry": {"type": "Point", "coordinates": [9.35992, 11.7192]}, "properties": {"id": "d55ed070-3837-4dcc-b35e-d510f4da6048", "name": "FUD Newsletter", "category": "college_university", "iso": "NER", "country": "Niger", "source": "overture"}}, {"type": "Feature", "geometry": {"type": "Point", "coordinates": [11.073105, 11.723512]}, "properties": {"id": "b06f8aff-54d2-46e4-9842-805e5606a231", "name": "College of Admin and Business Studies, Potiskum, Yobe", "category": "college_university", "iso": "NER", "country": "Niger", "source": "overture"}}, {"type": "Feature", "geometry": {"type": "Point", "coordinates": [11.058133, 11.714858]}, "properties": {"id": "631f3a0a-cd73-4db9-9bfc-0d9461370149", "name": "Bincike Siri", "category": "college_university", "iso": "NER", "country": "Niger", "source": "overture"}}, {"type": "Feature", "geometry": {"type": "Point", "coordinates": [11.065126, 11.712486]}, "properties": {"id": "197c287a-b25f-4af3-a725-c8ea6833d2bf", "name": "Diya'ul-Haq Islamic Academy Potiskum ", "category": "school", "iso": "NER", "country": "Niger", "source": "overture"}}, {"type": "Feature", "geometry": {"type": "Point", "coordinates": [11.0697, 11.7119]}, "properties": {"id": "23bde51f-ba3d-413e-ab92-a656a5f011b3", "name": "Premier Academy Potiskum, Yobe State", "category": "college_university", "iso": "NER", "country": "Niger", "source": "overture"}}, {"type": "Feature", "geometry": {"type": "Point", "coordinates": [11.0697, 11.7119]}, "properties": {"id": "da677b02-5eb3-446f-b484-95949ce6bd2b", "name": "Amma international school - Ainaps", "category": "college_university", "iso": "NER", "country": "Niger", "source": "overture"}}, {"type": "Feature", "geometry": {"type": "Point", "coordinates": [11.091623, 11.710025]}, "properties": {"id": "1a93af85-93d1-49a2-8087-63cd21476160", "name": "Federal College of Education (Technical), Potiskum", "category": "college_university", "iso": "NER", "country": "Niger", "source": "overture"}}, {"type": "Feature", "geometry": {"type": "Point", "coordinates": [11.102758, 11.706515]}, "properties": {"id": "cf56db1a-bfd6-46a0-a072-8ccc1e48f180", "name": "Federal College of Education [FCE] POTISKUM", "category": "college_university", "iso": "NER", "country": "Niger", "source": "overture"}}, {"type": "Feature", "geometry": {"type": "Point", "coordinates": [11.955713, 11.724268]}, "properties": {"id": "ff060ead-90fa-4b28-bfe9-431a5f4f4fe3", "name": "Yobe State University Damaturu", "category": "college_university", "iso": "NER", "country": "Niger", "source": "overture"}}, {"type": "Feature", "geometry": {"type": "Point", "coordinates": [13.139648, 11.708132]}, "properties": {"id": "e890dcf3-4f98-444c-b381-e2663fba5211", "name": "University of Maiduguri Business School", "category": "college_university", "iso": "NER", "country": "Niger", "source": "overture"}}, {"type": "Feature", "geometry": {"type": "Point", "coordinates": [11.32684, 11.67764]}, "properties": {"id": "b2d4a51c-5a91-4a1b-8235-1fb2bd8cdda4", "name": "Career Orbit Academy", "category": "education", "iso": "NER", "country": "Niger", "source": "overture"}}, {"type": "Feature", "geometry": {"type": "Point", "coordinates": [11.344738, 11.6782]}, "properties": {"id": "c5366d7a-e69b-43fb-9cab-522601d3868c", "name": "Yobe state university", "category": "college_university", "iso": "NER", "country": "Niger", "source": "overture"}}, {"type": "Feature", "geometry": {"type": "Point", "coordinates": [11.34822, 11.67855]}, "properties": {"id": "0a516b4e-f098-4e01-b386-0e0ffdfe4517", "name": "Amiable Academy Dutse", "category": "school", "iso": "NER", "country": "Niger", "source": "overture"}}, {"type": "Feature", "geometry": {"type": "Point", "coordinates": [11.944187, 11.678329]}, "properties": {"id": "7b8435f9-e4a6-4b27-aa03-2793319c6f30", "name": "Yobe State University", "category": "college_university", "iso": "NER", "country": "Niger", "source": "overture"}}, {"type": "Feature", "geometry": {"type": "Point", "coordinates": [11.876221, 11.684514]}, "properties": {"id": "fa28e08b-689a-49de-baf5-33eeb23edca3", "name": "Royal Excellence Academy", "category": "school", "iso": "NER", "country": "Niger", "source": "overture"}}, {"type": "Feature", "geometry": {"type": "Point", "coordinates": [11.952907, 11.683712]}, "properties": {"id": "c3fd9eac-24be-4d0d-a41e-9be4cd94ea01", "name": "Faculty Of Law Yobe State University", "category": "college_university", "iso": "NER", "country": "Niger", "source": "overture"}}, {"type": "Feature", "geometry": {"type": "Point", "coordinates": [11.947158, 11.683399]}, "properties": {"id": "d84c5340-0079-4bcc-80c7-430c3b672786", "name": "Yobe State University [YOSU] Damaturu.", "category": "college_university", "iso": "NER", "country": "Niger", "source": "overture"}}, {"type": "Feature", "geometry": {"type": "Point", "coordinates": [11.949073, 11.675002]}, "properties": {"id": "599c11c3-182b-4e50-b028-dad01be72270", "name": "Yobe State University", "category": "college_university", "iso": "NER", "country": "Niger", "source": "overture"}}, {"type": "Feature", "geometry": {"type": "Point", "coordinates": [11.24376, 11.672206]}, "properties": {"id": "a3ebe20d-faf0-411e-be12-7529a8641b1e", "name": "Nigerian Tulip International Colleges, Yobe", "category": "school", "iso": "NER", "country": "Niger", "source": "overture"}}, {"type": "Feature", "geometry": {"type": "Point", "coordinates": [10.215173, 11.652535]}, "properties": {"id": "1b50c8ac-389a-4f8f-a028-811155168fe6", "name": "Federal Government College, Azare", "category": "school", "iso": "NER", "country": "Niger", "source": "overture"}}, {"type": "Feature", "geometry": {"type": "Point", "coordinates": [10.21462, 11.65207]}, "properties": {"id": "6a029edf-42c6-4282-919f-c9aeaed0bbd5", "name": "FUHSA Medics", "category": "college_university", "iso": "NER", "country": "Niger", "source": "overture"}}, {"type": "Feature", "geometry": {"type": "Point", "coordinates": [15.292969, 11.609193]}, "properties": {"id": "6f2de2ab-7f3d-48b4-8e49-0801d50a095d", "name": "Uami-tchad", "category": "school", "iso": "NER", "country": "Niger", "source": "overture"}}, {"type": "Feature", "geometry": {"type": "Point", "coordinates": [14.431321, 11.726338]}, "properties": {"id": "14b0e9cc-3690-4109-b76b-2a51b5072bb9", "name": "DepEd Tayo Cabarabuan Elementary School 101597", "category": "school", "iso": "NER", "country": "Niger", "source": "overture"}}, {"type": "Feature", "geometry": {"type": "Point", "coordinates": [13.11974, 11.86216]}, "properties": {"id": "e020621a-e256-4fb7-a82d-49d064caac17", "name": "Mustapha", "category": "college_university", "iso": "NER", "country": "Niger", "source": "overture"}}, {"type": "Feature", "geometry": {"type": "Point", "coordinates": [13.15952, 11.86168]}, "properties": {"id": "c0697a5e-1e93-496e-8a0f-e4aa4e7ca240", "name": "El-Buba Stephen Music Academy", "category": "education", "iso": "NER", "country": "Niger", "source": "overture"}}, {"type": "Feature", "geometry": {"type": "Point", "coordinates": [13.209271, 11.86001]}, "properties": {"id": "331fb0e0-1faa-45c3-aadd-3a318ad7743d", "name": "Mohammed Lawan College of Agriculture", "category": "college_university", "iso": "NER", "country": "Niger", "source": "overture"}}, {"type": "Feature", "geometry": {"type": "Point", "coordinates": [13.14132, 11.86037]}, "properties": {"id": "906ee645-81b6-4aeb-966d-27d53c63ad3c", "name": "Ayuba", "category": "college_university", "iso": "NER", "country": "Niger", "source": "overture"}}, {"type": "Feature", "geometry": {"type": "Point", "coordinates": [13.13122, 11.85537]}, "properties": {"id": "c9b69ee4-a6ca-4ea7-91a5-36e0dca82d55", "name": "Faculty of Engineering, Unimaid.", "category": "college_university", "iso": "NER", "country": "Niger", "source": "overture"}}, {"type": "Feature", "geometry": {"type": "Point", "coordinates": [13.131804, 11.855505]}, "properties": {"id": "d309258f-9fe2-42e6-9511-99a959a83132", "name": "Iqra Islamic School", "category": "school", "iso": "NER", "country": "Niger", "source": "overture"}}, {"type": "Feature", "geometry": {"type": "Point", "coordinates": [13.1309, 11.85716]}, "properties": {"id": "d8f15e19-5fd6-48f0-af20-6d3e63debc43", "name": "Nigerian army university biu", "category": "college_university", "iso": "NER", "country": "Niger", "source": "overture"}}, {"type": "Feature", "geometry": {"type": "Point", "coordinates": [13.158542, 11.857481]}, "properties": {"id": "ef4baadc-f309-4c9c-9aca-629dc7b29aaf", "name": "Department of Microbiology, Faculty of Science University of Maiduguri", "category": "college_university", "iso": "NER", "country": "Niger", "source": "overture"}}, {"type": "Feature", "geometry": {"type": "Point", "coordinates": [13.158542, 11.857481]}, "properties": {"id": "aa812eb8-85dd-4d81-ad66-50b496fbe070", "name": "قسم الدراسات العربية، كلية الآداب، جامعة ميدغري ", "category": "college_university", "iso": "NER", "country": "Niger", "source": "overture"}}, {"type": "Feature", "geometry": {"type": "Point", "coordinates": [13.15858, 11.85771]}, "properties": {"id": "667ed2a6-87e6-4150-976b-dcdf8891fc73", "name": "Abul-Ansar Islamic School", "category": "school", "iso": "NER", "country": "Niger", "source": "overture"}}, {"type": "Feature", "geometry": {"type": "Point", "coordinates": [13.15858, 11.85771]}, "properties": {"id": "1686279e-0ca5-4d08-8b0d-7380a2f1daef", "name": "NUESA Unimaid Chapter", "category": "college_university", "iso": "NER", "country": "Niger", "source": "overture"}}, {"type": "Feature", "geometry": {"type": "Point", "coordinates": [13.15858, 11.85771]}, "properties": {"id": "f16671d8-d618-48fa-92a6-8714e32d168a", "name": "Zenith International Academy, Maiduguri", "category": "school", "iso": "NER", "country": "Niger", "source": "overture"}}, {"type": "Feature", "geometry": {"type": "Point", "coordinates": [13.15858, 11.85771]}, "properties": {"id": "8e809de9-83df-454a-bf6b-f975bc6e20b6", "name": "Future Hope Private School Maiduguri", "category": "school", "iso": "NER", "country": "Niger", "source": "overture"}}, {"type": "Feature", "geometry": {"type": "Point", "coordinates": [13.15856, 11.85762]}, "properties": {"id": "79214ff3-9382-4f17-a69b-5a85a52046e2", "name": "University of Maiduguri", "category": "college_university", "iso": "NER", "country": "Niger", "source": "overture"}}, {"type": "Feature", "geometry": {"type": "Point", "coordinates": [13.160132, 11.857308]}, "properties": {"id": "0d64c8fd-2011-45ac-9e1d-3e8517e019bb", "name": "Kanembright College", "category": "education", "iso": "NER", "country": "Niger", "source": "overture"}}, {"type": "Feature", "geometry": {"type": "Point", "coordinates": [13.132548, 11.858669]}, "properties": {"id": "3b9c3f18-03aa-44c6-a9d3-2c596b4e5681", "name": "Decentfield International School", "category": "school", "iso": "NER", "country": "Niger", "source": "overture"}}, {"type": "Feature", "geometry": {"type": "Point", "coordinates": [13.004044, 11.84799]}, "properties": {"id": "87b64297-5238-4164-91e2-184cbda092b6", "name": "Borno State University", "category": "college_university", "iso": "NER", "country": "Niger", "source": "overture"}}, {"type": "Feature", "geometry": {"type": "Point", "coordinates": [13.166894, 11.851907]}, "properties": {"id": "340ff007-33f1-496d-8f72-43fca127cad2", "name": "Gamboru1 Primary School", "category": "school", "iso": "NER", "country": "Niger", "source": "overture"}}, {"type": "Feature", "geometry": {"type": "Point", "coordinates": [13.12931, 11.85298]}, "properties": {"id": "3554f00d-551b-4af2-ab2e-4dad19baddb1", "name": "Borno State University and Beyond", "category": "college_university", "iso": "NER", "country": "Niger", "source": "overture"}}, {"type": "Feature", "geometry": {"type": "Point", "coordinates": [13.144542, 11.852885]}, "properties": {"id": "79500a61-89c9-48ea-b655-7dd6d7d8eb06", "name": "Al ' imara Integrated School.  مدرسة الإمارة المتكاملة إسلامية", "category": "school", "iso": "NER", "country": "Niger", "source": "overture"}}, {"type": "Feature", "geometry": {"type": "Point", "coordinates": [13.16626, 11.85327]}, "properties": {"id": "9e4aefb1-d417-4152-98c1-17c34c34f380", "name": "Saina Abba Umarun Sangoya Educational Centre-Gamboru Ward", "category": "college_university", "iso": "NER", "country": "Niger", "source": "overture"}}, {"type": "Feature", "geometry": {"type": "Point", "coordinates": [13.11554, 11.8536]}, "properties": {"id": "a2c4bfe4-1ac1-403f-addb-0447f957cc31", "name": "Abiso limited", "category": "college_university", "iso": "NER", "country": "Niger", "source": "overture"}}, {"type": "Feature", "geometry": {"type": "Point", "coordinates": [13.149557, 11.854453]}, "properties": {"id": "61590732-8a48-40e1-9c67-b4a403ab11ea", "name": "Lamisula Day Secondary School", "category": "college_university", "iso": "NER", "country": "Niger", "source": "overture"}}, {"type": "Feature", "geometry": {"type": "Point", "coordinates": [13.171579, 11.850399]}, "properties": {"id": "14cdfd5f-7beb-47f3-ad40-5c7cc70c683a", "name": "Darussalam Science and Islamic Academy", "category": "college_university", "iso": "NER", "country": "Niger", "source": "overture"}}, {"type": "Feature", "geometry": {"type": "Point", "coordinates": [13.171579, 11.850399]}, "properties": {"id": "ff7a8198-e69c-4339-b4e0-734b0893ceb2", "name": "Talent Global Model School, Maiduguri.", "category": "education", "iso": "NER", "country": "Niger", "source": "overture"}}, {"type": "Feature", "geometry": {"type": "Point", "coordinates": [13.185275, 11.847547]}, "properties": {"id": "97a3603b-46aa-4054-943c-257f24398e8e", "name": "Maiduguri Experimental School", "category": "school", "iso": "NER", "country": "Niger", "source": "overture"}}, {"type": "Feature", "geometry": {"type": "Point", "coordinates": [13.149699, 11.846903]}, "properties": {"id": "8928a7ba-8e2f-4e21-b7a3-45a45304f156", "name": "Mohammed Goni College of Legal and Islamic Studies", "category": "college_university", "iso": "NER", "country": "Niger", "source": "overture"}}, {"type": "Feature", "geometry": {"type": "Point", "coordinates": [13.152018, 11.844146]}, "properties": {"id": "f5bceedb-11e4-4724-91ce-ec4720b267b3", "name": "𝚂𝚝. 𝙹𝚘𝚑𝚗'𝚜 𝙰𝚌𝚊𝚍𝚎𝚖𝚢 𝙾𝚕𝚍 𝚊𝚛𝚖𝚢 𝙱𝚊𝚛𝚛𝚊𝚌𝚔𝚜 𝙲𝚞𝚜𝚝𝚘𝚖 𝚊𝚛𝚎𝚊 𝙼𝚊𝚒𝚍𝚞𝚐𝚞𝚛𝚒.", "category": "school", "iso": "NER", "country": "Niger", "source": "overture"}}, {"type": "Feature", "geometry": {"type": "Point", "coordinates": [13.08652, 11.84503]}, "properties": {"id": "5f3a872a-e4ac-4d77-a9b6-00cf67346814", "name": "Government day secondry school", "category": "school", "iso": "NER", "country": "Niger", "source": "overture"}}, {"type": "Feature", "geometry": {"type": "Point", "coordinates": [13.08652, 11.84503]}, "properties": {"id": "d46b26e2-6d46-4efb-b1ae-9841c170a577", "name": "Jibwis Zone E Bulumkutu/Gomari", "category": "school", "iso": "NER", "country": "Niger", "source": "overture"}}, {"type": "Feature", "geometry": {"type": "Point", "coordinates": [13.067622, 11.838306]}, "properties": {"id": "44ffec66-e56e-46ca-a557-c610ea192047", "name": "Al-Madinah International Model School", "category": "school", "iso": "NER", "country": "Niger", "source": "overture"}}, {"type": "Feature", "geometry": {"type": "Point", "coordinates": [13.168965, 11.839877]}, "properties": {"id": "866f99dc-774b-4351-a445-68e587598cc4", "name": "Ibrahim basha", "category": "college_university", "iso": "NER", "country": "Niger", "source": "overture"}}, {"type": "Feature", "geometry": {"type": "Point", "coordinates": [13.142184, 11.837684]}, "properties": {"id": "576cc6d9-ac1f-4721-b5d9-9c6b6cffd03b", "name": "Gamboru 1 Primary  school Maiduguri", "category": "college_university", "iso": "NER", "country": "Niger", "source": "overture"}}, {"type": "Feature", "geometry": {"type": "Point", "coordinates": [13.131586, 11.837432]}, "properties": {"id": "9f7ec5e8-2504-4d45-be2c-489a7722f107", "name": "Kiu Media", "category": "college_university", "iso": "NER", "country": "Niger", "source": "overture"}}, {"type": "Feature", "geometry": {"type": "Point", "coordinates": [13.144871, 11.836799]}, "properties": {"id": "b5fb6c32-1015-4c89-80b4-8c7102d608d0", "name": "El-kanemi college of islamic theology ", "category": "college_university", "iso": "NER", "country": "Niger", "source": "overture"}}, {"type": "Feature", "geometry": {"type": "Point", "coordinates": [13.144871, 11.836799]}, "properties": {"id": "13ee5384-7222-488f-9e52-91029e4eed24", "name": "Evangel Model Nursery and Primary school", "category": "education", "iso": "NER", "country": "Niger", "source": "overture"}}, {"type": "Feature", "geometry": {"type": "Point", "coordinates": [13.144871, 11.836799]}, "properties": {"id": "e0ff758c-8a8a-498c-af21-13f71b9bab06", "name": "Moduganari primary school old boys", "category": "school", "iso": "NER", "country": "Niger", "source": "overture"}}, {"type": "Feature", "geometry": {"type": "Point", "coordinates": [13.131595, 11.835051]}, "properties": {"id": "c34a2613-3b26-4692-a8eb-0917cc31a14e", "name": "Ramat Polytechnic College", "category": "college_university", "iso": "NER", "country": "Niger", "source": "overture"}}, {"type": "Feature", "geometry": {"type": "Point", "coordinates": [13.150532, 11.834903]}, "properties": {"id": "3703f8e9-a772-49d6-ba9a-7558f627b832", "name": "Mustapha Umar El-kanemi Al-azhar Institute, Maiduguri", "category": "education", "iso": "NER", "country": "Niger", "source": "overture"}}, {"type": "Feature", "geometry": {"type": "Point", "coordinates": [13.13979, 11.8344]}, "properties": {"id": "7bb19743-7be7-4914-8065-2b05bc065a37", "name": "Islahul Ummah Islamic Centre", "category": "school", "iso": "NER", "country": "Niger", "source": "overture"}}, {"type": "Feature", "geometry": {"type": "Point", "coordinates": [13.127987, 11.834093]}, "properties": {"id": "f7e04cf9-02e4-4ccb-826e-ec229d3c3b16", "name": "Our Lady's School, Maiduguri", "category": "school", "iso": "NER", "country": "Niger", "source": "overture"}}, {"type": "Feature", "geometry": {"type": "Point", "coordinates": [13.145533, 11.831027]}, "properties": {"id": "6aaf1f30-bd48-473b-a12a-dbc720c525d1", "name": "School Of Health Technology", "category": "school", "iso": "NER", "country": "Niger", "source": "overture"}}, {"type": "Feature", "geometry": {"type": "Point", "coordinates": [13.15, 11.8333]}, "properties": {"id": "70abfbcc-de1b-43d3-9dfa-17dcd0c48485", "name": "Ramat Journal of Management, Science and Technology - RJMST", "category": "college_university", "iso": "NER", "country": "Niger", "source": "overture"}}, {"type": "Feature", "geometry": {"type": "Point", "coordinates": [13.15, 11.8333]}, "properties": {"id": "f246eb3e-8cd0-4a57-975d-17faaab7e93c", "name": "At-Tawfeeq Integrated Islamic School", "category": "education", "iso": "NER", "country": "Niger", "source": "overture"}}, {"type": "Feature", "geometry": {"type": "Point", "coordinates": [13.149347, 11.832745]}, "properties": {"id": "b98c0576-86eb-4963-a430-976e4353d96c", "name": "Namu Model Secondary School", "category": "school", "iso": "NER", "country": "Niger", "source": "overture"}}, {"type": "Feature", "geometry": {"type": "Point", "coordinates": [13.111512, 11.833343]}, "properties": {"id": "4d2236dd-623b-4f4f-9749-8ddf6e4ab6c8", "name": "El-Kanemi College of Islamic Theology", "category": "college_university", "iso": "NER", "country": "Niger", "source": "overture"}}, {"type": "Feature", "geometry": {"type": "Point", "coordinates": [13.085283, 11.830422]}, "properties": {"id": "bad2d184-1e77-4c60-94bc-aecec98afe10", "name": "مدرسة زينب بنت جحش اسلامية", "category": "school", "iso": "NER", "country": "Niger", "source": "overture"}}, {"type": "Feature", "geometry": {"type": "Point", "coordinates": [13.08635, 11.83021]}, "properties": {"id": "87cd599e-145c-4392-8a64-b39c85470cdb", "name": "Darul hadith 1", "category": "college_university", "iso": "NER", "country": "Niger", "source": "overture"}}, {"type": "Feature", "geometry": {"type": "Point", "coordinates": [13.095047, 11.835005]}, "properties": {"id": "3094b36a-cb72-4810-a056-ba416a5c31b9", "name": "Kashim Ibrahim College of Education Maiduguri", "category": "college_university", "iso": "NER", "country": "Niger", "source": "overture"}}, {"type": "Feature", "geometry": {"type": "Point", "coordinates": [13.092315, 11.834881]}, "properties": {"id": "b704a35c-1e2f-401d-b212-edfd2c412dbd", "name": "Rumfa College, Kano", "category": "college_university", "iso": "NER", "country": "Niger", "source": "overture"}}, {"type": "Feature", "geometry": {"type": "Point", "coordinates": [10.165, 11.862767]}, "properties": {"id": "2b3bb376-2593-44d4-9511-6c5c720d230e", "name": "Bauchi State University, Gadau - BASUG", "category": "college_university", "iso": "NER", "country": "Niger", "source": "overture"}}, {"type": "Feature", "geometry": {"type": "Point", "coordinates": [10.163766, 11.827746]}, "properties": {"id": "04d898dc-976f-4d1b-8482-1d68a825d0f9", "name": "Bauchi State University Gadau", "category": "college_university", "iso": "NER", "country": "Niger", "source": "overture"}}, {"type": "Feature", "geometry": {"type": "Point", "coordinates": [13.109176, 11.822682]}, "properties": {"id": "f62ec8e4-b171-4280-a4b1-076c90567810", "name": "Maiduguri Linguistic Centre", "category": "education", "iso": "NER", "country": "Niger", "source": "overture"}}, {"type": "Feature", "geometry": {"type": "Point", "coordinates": [13.106762, 11.826961]}, "properties": {"id": "694cab8e-716e-4f8d-9269-120b06af3f3d", "name": "Kampala international university", "category": "college_university", "iso": "NER", "country": "Niger", "source": "overture"}}, {"type": "Feature", "geometry": {"type": "Point", "coordinates": [13.187558, 11.825372]}, "properties": {"id": "c8e0464a-8cf6-4db8-af47-13f308631fa8", "name": "Faculty of Science", "category": "college_university", "iso": "NER", "country": "Niger", "source": "overture"}}, {"type": "Feature", "geometry": {"type": "Point", "coordinates": [13.154944, 11.827058]}, "properties": {"id": "ed38f784-5abf-43a6-9c03-ec98c75f49e0", "name": "FGC Maiduguri", "category": "school", "iso": "NER", "country": "Niger", "source": "overture"}}, {"type": "Feature", "geometry": {"type": "Point", "coordinates": [13.123842, 11.826464]}, "properties": {"id": "b988d833-2f33-4406-af4c-a273b4330e06", "name": "Mustapha Umar El-Kanemi Arabic College Maiduguri", "category": "education", "iso": "NER", "country": "Niger", "source": "overture"}}, {"type": "Feature", "geometry": {"type": "Point", "coordinates": [13.116849, 11.824867]}, "properties": {"id": "6ef8dcaf-2140-4861-aebb-72e08e5c062b", "name": "Kauna private school", "category": "education", "iso": "NER", "country": "Niger", "source": "overture"}}, {"type": "Feature", "geometry": {"type": "Point", "coordinates": [13.153237, 11.824175]}, "properties": {"id": "556c0024-2e7c-4c5e-900c-5d9a334ad7d1", "name": "Ramat Polytechnic Maiduguri", "category": "college_university", "iso": "NER", "country": "Niger", "source": "overture"}}, {"type": "Feature", "geometry": {"type": "Point", "coordinates": [13.153237, 11.824175]}, "properties": {"id": "119ac532-2186-4ae4-a42e-8b0abc78e327", "name": "Green House", "category": "college_university", "iso": "NER", "country": "Niger", "source": "overture"}}, {"type": "Feature", "geometry": {"type": "Point", "coordinates": [13.181875, 11.822314]}, "properties": {"id": "02f4c99a-d6b7-40f8-b396-be4d69ca5669", "name": "University of Maiduguri teaching hospital", "category": "college_university", "iso": "NER", "country": "Niger", "source": "overture"}}, {"type": "Feature", "geometry": {"type": "Point", "coordinates": [13.156026, 11.820824]}, "properties": {"id": "57d59128-7852-41ec-962b-4873288a2304", "name": "Nifes college of health technology maiduguri", "category": "college_university", "iso": "NER", "country": "Niger", "source": "overture"}}, {"type": "Feature", "geometry": {"type": "Point", "coordinates": [13.113083, 11.816948]}, "properties": {"id": "4373b215-3506-4b6d-884b-800bdf2f5ce3", "name": "Rampoly", "category": "college_university", "iso": "NER", "country": "Niger", "source": "overture"}}, {"type": "Feature", "geometry": {"type": "Point", "coordinates": [13.115576, 11.817369]}, "properties": {"id": "bdcb1742-504e-4bfb-910b-759f8bbfb5f8", "name": "Layin Hadiza Memorial School", "category": "school", "iso": "NER", "country": "Niger", "source": "overture"}}, {"type": "Feature", "geometry": {"type": "Point", "coordinates": [13.13954, 11.81358]}, "properties": {"id": "03b0ac6f-b1c7-41db-a419-bed1be3bd969", "name": "مدرسة علم الهدى الإسلامية المتكاملة Alamul Huda Integrated Islamic School", "category": "school", "iso": "NER", "country": "Niger", "source": "overture"}}, {"type": "Feature", "geometry": {"type": "Point", "coordinates": [13.13954, 11.81358]}, "properties": {"id": "c96c3e55-3d71-498d-8c89-9dba0c2fee36", "name": "Ulul-albab Integrated School", "category": "school", "iso": "NER", "country": "Niger", "source": "overture"}}, {"type": "Feature", "geometry": {"type": "Point", "coordinates": [13.13954, 11.81358]}, "properties": {"id": "28fbfc45-4dc3-45c1-93e3-0d84315057c3", "name": "College of Nursing and Midwifery maiduguri Borno state", "category": "college_university", "iso": "NER", "country": "Niger", "source": "overture"}}, {"type": "Feature", "geometry": {"type": "Point", "coordinates": [13.15496, 11.81635]}, "properties": {"id": "1d671b04-fb9d-4fc7-9134-864a31d9ad4b", "name": "Al-Ansar Academy Maiduguri", "category": "school", "iso": "NER", "country": "Niger", "source": "overture"}}, {"type": "Feature", "geometry": {"type": "Point", "coordinates": [13.204058, 11.811411]}, "properties": {"id": "d36c9295-79b2-4e70-947e-c6e969a79096", "name": "Faculty of Sciences", "category": "college_university", "iso": "NER", "country": "Niger", "source": "overture"}}, {"type": "Feature", "geometry": {"type": "Point", "coordinates": [13.20391, 11.809776]}, "properties": {"id": "86caa892-bbd1-4534-b2b8-1cc801116268", "name": "Department of Finance, University of Maiduguri, Borno State", "category": "college_university", "iso": "NER", "country": "Niger", "source": "overture"}}, {"type": "Feature", "geometry": {"type": "Point", "coordinates": [13.19162, 11.80859]}, "properties": {"id": "480cd1ed-84e2-4cba-801a-88589d2e7c38", "name": "Unimaid Students  News Timeline", "category": "college_university", "iso": "NER", "country": "Niger", "source": "overture"}}, {"type": "Feature", "geometry": {"type": "Point", "coordinates": [13.19162, 11.80859]}, "properties": {"id": "a71e5a09-8643-4489-81cc-cbf907f2320d", "name": "Centre for Distance Learning Unimaid", "category": "college_university", "iso": "NER", "country": "Niger", "source": "overture"}}, {"type": "Feature", "geometry": {"type": "Point", "coordinates": [13.196747, 11.804851]}, "properties": {"id": "81489879-01fd-48e2-a78b-20f3bd722434", "name": "University of Maiduguri", "category": "college_university", "iso": "NER", "country": "Niger", "source": "overture"}}, {"type": "Feature", "geometry": {"type": "Point", "coordinates": [13.138511, 11.805822]}, "properties": {"id": "6f78cfad-d0f6-4fc0-ae05-94ab3256bbca", "name": "Maiduguri International School", "category": "school", "iso": "NER", "country": "Niger", "source": "overture"}}, {"type": "Feature", "geometry": {"type": "Point", "coordinates": [13.204562, 11.807415]}, "properties": {"id": "5a112c9a-ed65-420b-a1da-6066644087c4", "name": "Faculty of Education Unimaid", "category": "college_university", "iso": "NER", "country": "Niger", "source": "overture"}}, {"type": "Feature", "geometry": {"type": "Point", "coordinates": [13.203189, 11.807067]}, "properties": {"id": "c915bd51-9707-4f08-81e1-82a30189757b", "name": "Faculty of Law, University of Maiduguri.", "category": "college_university", "iso": "NER", "country": "Niger", "source": "overture"}}, {"type": "Feature", "geometry": {"type": "Point", "coordinates": [13.1493, 11.8071]}, "properties": {"id": "4afe47b3-82ea-4639-bf60-1fb0f03a53f3", "name": "HIRRA Maiduguri Branch", "category": "school", "iso": "NER", "country": "Niger", "source": "overture"}}, {"type": "Feature", "geometry": {"type": "Point", "coordinates": [13.16416, 11.80745]}, "properties": {"id": "3d0b3429-e1fc-4d24-9b58-3dd296df8fd0", "name": "Maiduguri Capital School", "category": "school", "iso": "NER", "country": "Niger", "source": "overture"}}, {"type": "Feature", "geometry": {"type": "Point", "coordinates": [12.49041, 11.8086]}, "properties": {"id": "0fecb583-c613-490f-ba76-91457f97fafe", "name": "Nana Aisha College Of Islamic Theology Damaturu", "category": "school", "iso": "NER", "country": "Niger", "source": "overture"}}, {"type": "Feature", "geometry": {"type": "Point", "coordinates": [13.13668, 11.80014]}, "properties": {"id": "836d829a-e004-4265-9a42-c682ff356659", "name": "Ayatullah", "category": "college_university", "iso": "NER", "country": "Niger", "source": "overture"}}, {"type": "Feature", "geometry": {"type": "Point", "coordinates": [13.153131, 11.801007]}, "properties": {"id": "777e9582-b2eb-48ca-8697-d5b0851b39ee", "name": "Fayas Preparatory School", "category": "school", "iso": "NER", "country": "Niger", "source": "overture"}}, {"type": "Feature", "geometry": {"type": "Point", "coordinates": [13.14617, 11.80375]}, "properties": {"id": "11aa18f4-83f2-4b81-81a0-a192e8fce9d4", "name": "Elkanemi College Maiduguri", "category": "school", "iso": "NER", "country": "Niger", "source": "overture"}}, {"type": "Feature", "geometry": {"type": "Point", "coordinates": [13.198104, 11.802932]}, "properties": {"id": "802b39ed-7e94-462f-b6ad-2972204c9536", "name": "Department of Biochemistry university of Maiduguri.", "category": "college_university", "iso": "NER", "country": "Niger", "source": "overture"}}, {"type": "Feature", "geometry": {"type": "Point", "coordinates": [13.197053, 11.802867]}, "properties": {"id": "d65c7907-93c7-4302-8782-70cb08e4593f", "name": "College of Medical Sciences", "category": "college_university", "iso": "NER", "country": "Niger", "source": "overture"}}, {"type": "Feature", "geometry": {"type": "Point", "coordinates": [13.197053, 11.802867]}, "properties": {"id": "0d825154-ae98-4426-a672-bd1f5f2a0fe4", "name": "Darul Qur'an wattarteel Islamic science secondary School,maiduguri", "category": "college_university", "iso": "NER", "country": "Niger", "source": "overture"}}, {"type": "Feature", "geometry": {"type": "Point", "coordinates": [13.19683, 11.802988]}, "properties": {"id": "86b9e276-777a-4112-88d8-1c1d1d0762fb", "name": "Posgraduate School, Unimaid.", "category": "college_university", "iso": "NER", "country": "Niger", "source": "overture"}}, {"type": "Feature", "geometry": {"type": "Point", "coordinates": [13.159596, 11.797164]}, "properties": {"id": "fe806c5b-f65c-428f-b091-3b7e80b51cf2", "name": "University Of Maiduguri", "category": "school", "iso": "NER", "country": "Niger", "source": "overture"}}, {"type": "Feature", "geometry": {"type": "Point", "coordinates": [13.192036, 11.795639]}, "properties": {"id": "3c4caa6b-befd-4788-a1a0-3f8b4accb186", "name": "University of Maiduguri (UNIMAID)", "category": "college_university", "iso": "NER", "country": "Niger", "source": "overture"}}, {"type": "Feature", "geometry": {"type": "Point", "coordinates": [13.11156, 11.79089]}, "properties": {"id": "6e904b48-3fb2-438a-be39-2eeffe5fbdee", "name": "Abba Bukar Marte", "category": "college_university", "iso": "NER", "country": "Niger", "source": "overture"}}, {"type": "Feature", "geometry": {"type": "Point", "coordinates": [13.137367, 11.790242]}, "properties": {"id": "2d329920-c36c-492c-9b2d-c38ce71e80e4", "name": "Dept of Post Graduate University of Maiduguri", "category": "college_university", "iso": "NER", "country": "Niger", "source": "overture"}}, {"type": "Feature", "geometry": {"type": "Point", "coordinates": [11.94114, 11.767317]}, "properties": {"id": "9b400cc1-9c83-45f0-aa48-9abd069cece9", "name": "Heart Of History", "category": "college_university", "iso": "NER", "country": "Niger", "source": "overture"}}, {"type": "Feature", "geometry": {"type": "Point", "coordinates": [11.96256, 11.744303]}, "properties": {"id": "b420c796-ca54-4325-8545-b5d5f87421be", "name": "Madarasatus Sabilul Huda Ali Marami", "category": "school", "iso": "NER", "country": "Niger", "source": "overture"}}, {"type": "Feature", "geometry": {"type": "Point", "coordinates": [11.976773, 11.743356]}, "properties": {"id": "9b0a7c94-9803-4894-b204-6930e71171fc", "name": "Yobe Islamic center damaturu", "category": "education", "iso": "NER", "country": "Niger", "source": "overture"}}, {"type": "Feature", "geometry": {"type": "Point", "coordinates": [11.94366, 11.73943]}, "properties": {"id": "c6c94af2-8ff0-4944-8142-f82f97e13da8", "name": "Leaders Private School Damaturu", "category": "school", "iso": "NER", "country": "Niger", "source": "overture"}}, {"type": "Feature", "geometry": {"type": "Point", "coordinates": [11.951337, 11.739157]}, "properties": {"id": "d1511179-ee9c-43a4-b086-f16611556114", "name": "MAI Barde Foundation", "category": "education", "iso": "NER", "country": "Niger", "source": "overture"}}, {"type": "Feature", "geometry": {"type": "Point", "coordinates": [11.994568, 11.737564]}, "properties": {"id": "352ebc1a-9c3a-42a4-b5ad-a2e3242e1ded", "name": "Esteem universal academy", "category": "education", "iso": "NER", "country": "Niger", "source": "overture"}}, {"type": "Feature", "geometry": {"type": "Point", "coordinates": [11.958494, 11.736176]}, "properties": {"id": "6c7933f9-bc54-4fbc-a995-4fabe3843074", "name": "Ibn Abbas Memorial School", "category": "school", "iso": "NER", "country": "Niger", "source": "overture"}}, {"type": "Feature", "geometry": {"type": "Point", "coordinates": [12.031051, 11.732906]}, "properties": {"id": "36142668-4ff5-4e87-99f9-4f211ab0dd59", "name": "Green Field Red Bricks International School", "category": "school", "iso": "NER", "country": "Niger", "source": "overture"}}, {"type": "Feature", "geometry": {"type": "Point", "coordinates": [11.944549, 11.735012]}, "properties": {"id": "c1a95af3-f46c-4715-a69c-2b62bb0a9cc7", "name": "Nepwhan Yobe State", "category": "college_university", "iso": "NER", "country": "Niger", "source": "overture"}}, {"type": "Feature", "geometry": {"type": "Point", "coordinates": [11.98205, 11.745992]}, "properties": {"id": "c781642b-9f71-4221-a602-3788f0d40bd1", "name": "FPD", "category": "college_university", "iso": "NER", "country": "Niger", "source": "overture"}}, {"type": "Feature", "geometry": {"type": "Point", "coordinates": [11.96256, 11.74441]}, "properties": {"id": "a838b118-3039-4357-abdd-83c472310c07", "name": "Goni Muktar Islamic Center, Damaturu-GMIC", "category": "education", "iso": "NER", "country": "Niger", "source": "overture"}}, {"type": "Feature", "geometry": {"type": "Point", "coordinates": [11.96253, 11.744909]}, "properties": {"id": "f63eaecf-4ba2-4ee5-947f-a3527ea9db7b", "name": "Department of Geography", "category": "college_university", "iso": "NER", "country": "Niger", "source": "overture"}}, {"type": "Feature", "geometry": {"type": "Point", "coordinates": [11.961423, 11.751995]}, "properties": {"id": "b9f5d6ae-9350-4c6f-8e57-b316a530415e", "name": "Ar-Risalah Academy Damaturu", "category": "school", "iso": "NER", "country": "Niger", "source": "overture"}}, {"type": "Feature", "geometry": {"type": "Point", "coordinates": [11.98776, 11.75061]}, "properties": {"id": "b69de06e-8877-4f5a-b5bf-3ce198504268", "name": "Gujba / Gulani Emirate Students Association Fedpodam Chapter", "category": "college_university", "iso": "NER", "country": "Niger", "source": "overture"}}, {"type": "Feature", "geometry": {"type": "Point", "coordinates": [9.33417, 11.7775]}, "properties": {"id": "143bd311-1acd-4b2c-8d60-2b9a4a6fbde8", "name": "Dutse International Science  College", "category": "college_university", "iso": "NER", "country": "Niger", "source": "overture"}}, {"type": "Feature", "geometry": {"type": "Point", "coordinates": [9.6125, 11.7828]}, "properties": {"id": "7af38834-f56a-4f7c-97ef-7775dc531cba", "name": "Salisu Suleiman Kiyawa.", "category": "college_university", "iso": "NER", "country": "Niger", "source": "overture"}}, {"type": "Feature", "geometry": {"type": "Point", "coordinates": [9.406464, 11.78433]}, "properties": {"id": "309d84fd-2a84-4948-90fd-de28a96d8c35", "name": "Bupoly Bulletin", "category": "college_university", "iso": "NER", "country": "Niger", "source": "overture"}}, {"type": "Feature", "geometry": {"type": "Point", "coordinates": [7.61963, 11.78979]}, "properties": {"id": "e26915a4-51dc-4d1e-b690-532fe1a23d80", "name": "Federal Science And Technical College Dayi, Malumfashi Katsina State", "category": "college_university", "iso": "NER", "country": "Niger", "source": "overture"}}, {"type": "Feature", "geometry": {"type": "Point", "coordinates": [7.61963, 11.78979]}, "properties": {"id": "af20353a-f0d1-487f-998b-93de68ae633d", "name": "Madarasatul Ihsan Wa tarbiyatul Islamiyya, Malumfashi", "category": "college_university", "iso": "NER", "country": "Niger", "source": "overture"}}, {"type": "Feature", "geometry": {"type": "Point", "coordinates": [7.61963, 11.78979]}, "properties": {"id": "203a249c-ec20-4277-8cd0-e8b4388f74ee", "name": "Government Day Secondary School, Malumfashi.", "category": "school", "iso": "NER", "country": "Niger", "source": "overture"}}, {"type": "Feature", "geometry": {"type": "Point", "coordinates": [7.61963, 11.78979]}, "properties": {"id": "98ff511b-2c0f-4cb2-b156-77882f1f9353", "name": "Abk minister", "category": "college_university", "iso": "NER", "country": "Niger", "source": "overture"}}, {"type": "Feature", "geometry": {"type": "Point", "coordinates": [7.61963, 11.78979]}, "properties": {"id": "b3f79d88-9d61-4c72-806e-8409fadaa292", "name": "Danyari primary school", "category": "education", "iso": "NER", "country": "Niger", "source": "overture"}}, {"type": "Feature", "geometry": {"type": "Point", "coordinates": [8.66138, 11.75713]}, "properties": {"id": "4ff4a4a7-395e-4199-b30c-900566eccd50", "name": "Alfurqan Academy", "category": "school", "iso": "NER", "country": "Niger", "source": "overture"}}, {"type": "Feature", "geometry": {"type": "Point", "coordinates": [8.840013, 11.795927]}, "properties": {"id": "61194504-d6f2-4e18-b947-cdad2ea01a48", "name": "Fce (T) Bichi", "category": "college_university", "iso": "NER", "country": "Niger", "source": "overture"}}, {"type": "Feature", "geometry": {"type": "Point", "coordinates": [8.85454, 11.799452]}, "properties": {"id": "45f6fea6-4cd2-4a6e-b261-89f5185ef6de", "name": "Kano University of Science & Technology Wudil - KUST", "category": "college_university", "iso": "NER", "country": "Niger", "source": "overture"}}, {"type": "Feature", "geometry": {"type": "Point", "coordinates": [8.84586, 11.80468]}, "properties": {"id": "130ff7dc-5c7f-46b6-9689-2cda69fbb82f", "name": "Savannah School Of Health Technology", "category": "education", "iso": "NER", "country": "Niger", "source": "overture"}}, {"type": "Feature", "geometry": {"type": "Point", "coordinates": [8.84586, 11.80468]}, "properties": {"id": "c18e71db-1de3-4dbf-ac87-ad7a74f45b4d", "name": "Bahaz Integrated Academy", "category": "school", "iso": "NER", "country": "Niger", "source": "overture"}}, {"type": "Feature", "geometry": {"type": "Point", "coordinates": [8.84586, 11.80468]}, "properties": {"id": "9ca0ea7f-6e8f-4a45-b531-5d0ec57cb7a0", "name": "The Nigeria Police Academy Wudil 9RC", "category": "school", "iso": "NER", "country": "Niger", "source": "overture"}}, {"type": "Feature", "geometry": {"type": "Point", "coordinates": [8.84586, 11.80468]}, "properties": {"id": "7a342378-99b7-41b7-a7e0-36cee7a5c6ed", "name": "Nigeria Police Academy", "category": "college_university", "iso": "NER", "country": "Niger", "source": "overture"}}, {"type": "Feature", "geometry": {"type": "Point", "coordinates": [8.84586, 11.80468]}, "properties": {"id": "234d00cd-2b6f-4283-bd35-8defbfa0b85b", "name": "Aliko Dangote University Of Science and Technology - Adustech Wudil", "category": "college_university", "iso": "NER", "country": "Niger", "source": "overture"}}, {"type": "Feature", "geometry": {"type": "Point", "coordinates": [8.84954, 11.80564]}, "properties": {"id": "1f4620b7-2acd-483d-9a37-03a8312f4cf3", "name": "Almukhatib Academy ", "category": "school", "iso": "NER", "country": "Niger", "source": "overture"}}, {"type": "Feature", "geometry": {"type": "Point", "coordinates": [8.85, 11.8167]}, "properties": {"id": "4918516c-aba0-405c-8d0f-76c2fa7f2ea4", "name": "Kano University of Science and Technology, Wudul English Club - kustec.", "category": "education", "iso": "NER", "country": "Niger", "source": "overture"}}, {"type": "Feature", "geometry": {"type": "Point", "coordinates": [8.80374, 11.82491]}, "properties": {"id": "1096b576-f935-470c-b0af-8d671959a0a6", "name": "Nigerian Police Academy(POLAC) Wudil Kano", "category": "college_university", "iso": "NER", "country": "Niger", "source": "overture"}}, {"type": "Feature", "geometry": {"type": "Point", "coordinates": [8.72928, 11.83615]}, "properties": {"id": "f90b8485-d3bc-43ca-b117-debc0c8b9c4e", "name": "Husain alkasim husain", "category": "college_university", "iso": "NER", "country": "Niger", "source": "overture"}}, {"type": "Feature", "geometry": {"type": "Point", "coordinates": [8.60203, 11.837669]}, "properties": {"id": "6112bd8c-0039-471d-941b-9b8491348be2", "name": "Government secondary school yargaya", "category": "school", "iso": "NER", "country": "Niger", "source": "overture"}}, {"type": "Feature", "geometry": {"type": "Point", "coordinates": [8.592811, 11.839568]}, "properties": {"id": "d2bb853d-ab42-4649-8fd1-f88282b8762c", "name": "Dawakin Kudu Science College, Kano-Nigeria.", "category": "education", "iso": "NER", "country": "Niger", "source": "overture"}}, {"type": "Feature", "geometry": {"type": "Point", "coordinates": [8.595346, 11.838945]}, "properties": {"id": "2e7da686-1b87-41ab-ad9f-68bb476da63d", "name": "Amra Modern School General Dawakin kudu", "category": "school", "iso": "NER", "country": "Niger", "source": "overture"}}, {"type": "Feature", "geometry": {"type": "Point", "coordinates": [8.595346, 11.838945]}, "properties": {"id": "275ec19c-6428-4985-ab44-6d607481a1a2", "name": "Federal college of education", "category": "education", "iso": "NER", "country": "Niger", "source": "overture"}}, {"type": "Feature", "geometry": {"type": "Point", "coordinates": [8.39522, 11.85489]}, "properties": {"id": "bb3f2b03-875a-4eb2-8047-a95d392cfbb6", "name": "College of Nursing & Midwifery Madobi", "category": "school", "iso": "NER", "country": "Niger", "source": "overture"}}, {"type": "Feature", "geometry": {"type": "Point", "coordinates": [7.6517, 11.85355]}, "properties": {"id": "da44b7c2-eb5c-4aa9-bc99-1c1fdfb1c43c", "name": "Dansarai educational development association", "category": "education", "iso": "NER", "country": "Niger", "source": "overture"}}, {"type": "Feature", "geometry": {"type": "Point", "coordinates": [4.570312, 11.867351]}, "properties": {"id": "9501ac18-c871-4797-8276-c0b17bdc38c1", "name": "Tecnológico Superior D.E Zamora", "category": "college_university", "iso": "NER", "country": "Niger", "source": "overture"}}, {"type": "Feature", "geometry": {"type": "Point", "coordinates": [7.412643, 11.929543]}, "properties": {"id": "10bb4c66-6059-4c71-bb79-93c63438751d", "name": "Annur science academy kankara", "category": "school", "iso": "NER", "country": "Niger", "source": "overture"}}, {"type": "Feature", "geometry": {"type": "Point", "coordinates": [8.469474, 11.926822]}, "properties": {"id": "fd4b5be1-209a-4936-a7a8-99420494f30e", "name": "Yarimawa Academy", "category": "school", "iso": "NER", "country": "Niger", "source": "overture"}}, {"type": "Feature", "geometry": {"type": "Point", "coordinates": [8.50896, 11.92526]}, "properties": {"id": "c854b5c2-bcb9-4cef-a0d2-6d21ba71a41b", "name": "Abdullahi Best Bright Nursery, Primary And Secondary School", "category": "education", "iso": "NER", "country": "Niger", "source": "overture"}}, {"type": "Feature", "geometry": {"type": "Point", "coordinates": [8.472678, 11.930548]}, "properties": {"id": "715404a4-c757-40ec-aa2b-a338098a9dd5", "name": "Barkalheri Global Academy", "category": "education", "iso": "NER", "country": "Niger", "source": "overture"}}, {"type": "Feature", "geometry": {"type": "Point", "coordinates": [8.550513, 11.928838]}, "properties": {"id": "b59fa85e-1264-4240-ada5-97776d8280ef", "name": "Light international School", "category": "school", "iso": "NER", "country": "Niger", "source": "overture"}}, {"type": "Feature", "geometry": {"type": "Point", "coordinates": [8.550513, 11.928838]}, "properties": {"id": "e154f093-9653-408d-9331-6ae4400ce65a", "name": "Golden Pen Comprehensive College", "category": "college_university", "iso": "NER", "country": "Niger", "source": "overture"}}, {"type": "Feature", "geometry": {"type": "Point", "coordinates": [8.550513, 11.928838]}, "properties": {"id": "2af2863e-9a63-4e21-850c-d86bbe589da5", "name": "Sagiru mansur gajida", "category": "college_university", "iso": "NER", "country": "Niger", "source": "overture"}}, {"type": "Feature", "geometry": {"type": "Point", "coordinates": [8.549702, 11.921292]}, "properties": {"id": "4b226b72-b585-48d7-bf9e-661a0711d2b2", "name": "Srcoe Computer Science Student Forum", "category": "education", "iso": "NER", "country": "Niger", "source": "overture"}}, {"type": "Feature", "geometry": {"type": "Point", "coordinates": [8.46587, 11.91754]}, "properties": {"id": "22346e38-c825-46d7-ae5b-a9db68dcbbbd", "name": "Metro Science Academy", "category": "education", "iso": "NER", "country": "Niger", "source": "overture"}}, {"type": "Feature", "geometry": {"type": "Point", "coordinates": [8.46262, 11.90697]}, "properties": {"id": "7cb4c893-fe84-46cc-961c-45d43a7d77af", "name": "Darul Qur'an Almukhtariyyah Academy", "category": "college_university", "iso": "NER", "country": "Niger", "source": "overture"}}, {"type": "Feature", "geometry": {"type": "Point", "coordinates": [8.46262, 11.90697]}, "properties": {"id": "bed2baa4-d995-4f88-86f1-366c75f09965", "name": "APEX International School", "category": "school", "iso": "NER", "country": "Niger", "source": "overture"}}, {"type": "Feature", "geometry": {"type": "Point", "coordinates": [8.502628, 11.891582]}, "properties": {"id": "80866b62-e9d7-49e5-b54e-e95ad24f47a4", "name": "Mai-Nasara Integrated Academy", "category": "school", "iso": "NER", "country": "Niger", "source": "overture"}}, {"type": "Feature", "geometry": {"type": "Point", "coordinates": [7.870478, 11.868016]}, "properties": {"id": "1c19057f-acbf-4dc9-863d-8c3199112603", "name": "MAGUD memorial Academy Gwarzo", "category": "education", "iso": "NER", "country": "Niger", "source": "overture"}}, {"type": "Feature", "geometry": {"type": "Point", "coordinates": [13.13812, 11.86336]}, "properties": {"id": "fbb58c14-d1d7-4392-b113-8751568e5919", "name": "Manhajul Hayatul Islamiya", "category": "college_university", "iso": "NER", "country": "Niger", "source": "overture"}}, {"type": "Feature", "geometry": {"type": "Point", "coordinates": [13.170027, 11.866777]}, "properties": {"id": "d2bd8980-90db-4fea-bca1-e9c2d2abc354", "name": "Old Maiduguri Primary School", "category": "school", "iso": "NER", "country": "Niger", "source": "overture"}}, {"type": "Feature", "geometry": {"type": "Point", "coordinates": [13.097176, 11.903922]}, "properties": {"id": "a61db36a-9e02-4f75-80ad-3187d6b1fbf2", "name": "Rakad International School", "category": "school", "iso": "NER", "country": "Niger", "source": "overture"}}, {"type": "Feature", "geometry": {"type": "Point", "coordinates": [13.086647, 11.978668]}, "properties": {"id": "657576af-c163-4b0c-93c1-650cb93edee9", "name": "Riyadul jannah Integrated Islamic School", "category": "school", "iso": "NER", "country": "Niger", "source": "overture"}}, {"type": "Feature", "geometry": {"type": "Point", "coordinates": [8.571589, 11.998032]}, "properties": {"id": "c233c219-bc62-4224-bc70-209987fc5197", "name": "Hamdala College of Nursing Sciences, Kano", "category": "college_university", "iso": "NER", "country": "Niger", "source": "overture"}}, {"type": "Feature", "geometry": {"type": "Point", "coordinates": [8.571589, 11.998032]}, "properties": {"id": "381eaf12-1835-4674-abf0-7bbd0daf462d", "name": "Friends Montessori Academy", "category": "school", "iso": "NER", "country": "Niger", "source": "overture"}}, {"type": "Feature", "geometry": {"type": "Point", "coordinates": [8.565512, 11.998365]}, "properties": {"id": "924edcbf-4266-4d70-ab14-9e9b0a9120b0", "name": "Gss Minjibir", "category": "college_university", "iso": "NER", "country": "Niger", "source": "overture"}}, {"type": "Feature", "geometry": {"type": "Point", "coordinates": [8.520025, 11.998685]}, "properties": {"id": "bbea760f-0faf-45ee-88de-28de7873780d", "name": "Al-Muha Jirun Comprehensive School", "category": "school", "iso": "NER", "country": "Niger", "source": "overture"}}, {"type": "Feature", "geometry": {"type": "Point", "coordinates": [8.493058, 11.998726]}, "properties": {"id": "1581d939-9a16-471f-b26e-3fc4faaffb58", "name": "Prison staff school", "category": "education", "iso": "NER", "country": "Niger", "source": "overture"}}, {"type": "Feature", "geometry": {"type": "Point", "coordinates": [8.522154, 11.99701]}, "properties": {"id": "835d5f3d-06bf-4c87-a820-900407cb8c47", "name": "School For Higher Islamic Studies", "category": "school", "iso": "NER", "country": "Niger", "source": "overture"}}, {"type": "Feature", "geometry": {"type": "Point", "coordinates": [8.509097, 11.996844]}, "properties": {"id": "eab8ffd2-ec03-4035-aa34-8fe5c3f5b2d7", "name": "Tahfizul quran sudawa", "category": "education", "iso": "NER", "country": "Niger", "source": "overture"}}, {"type": "Feature", "geometry": {"type": "Point", "coordinates": [8.522266, 11.995953]}, "properties": {"id": "e826eeab-10e5-41ec-8204-1b92765bf0b9", "name": "GGSS Shahuchi", "category": "education", "iso": "NER", "country": "Niger", "source": "overture"}}, {"type": "Feature", "geometry": {"type": "Point", "coordinates": [8.47527, 11.99538]}, "properties": {"id": "84df43df-6638-4303-b8a6-647e08d3d5ab", "name": "Magwan Science And Technical primary school", "category": "school", "iso": "NER", "country": "Niger", "source": "overture"}}, {"type": "Feature", "geometry": {"type": "Point", "coordinates": [8.515726, 11.995646]}, "properties": {"id": "b061cbc0-b54a-4e9b-b2a8-aa522c2c27dc", "name": "Day Science College Kano", "category": "college_university", "iso": "NER", "country": "Niger", "source": "overture"}}, {"type": "Feature", "geometry": {"type": "Point", "coordinates": [8.526129, 11.995184]}, "properties": {"id": "15c47d31-0f4d-4484-b214-008a51005cf6", "name": "Abubaka Adamis Yakasai", "category": "school", "iso": "NER", "country": "Niger", "source": "overture"}}, {"type": "Feature", "geometry": {"type": "Point", "coordinates": [8.571488, 11.996062]}, "properties": {"id": "a8f007b9-31b8-4ca4-a63d-dc18c38ed53e", "name": "MAAUN News Plus", "category": "school", "iso": "NER", "country": "Niger", "source": "overture"}}, {"type": "Feature", "geometry": {"type": "Point", "coordinates": [8.469703, 11.99384]}, "properties": {"id": "f15438c9-3751-4d70-ba8e-9728238e8c32", "name": "Lucky Child Comprehensive Academy ", "category": "school", "iso": "NER", "country": "Niger", "source": "overture"}}, {"type": "Feature", "geometry": {"type": "Point", "coordinates": [8.469867, 11.994238]}, "properties": {"id": "9bcbf819-0999-4681-bd6a-493e0e6b1598", "name": "Emirates College of Health Sciences and Technology - Ecohsat", "category": "college_university", "iso": "NER", "country": "Niger", "source": "overture"}}, {"type": "Feature", "geometry": {"type": "Point", "coordinates": [8.495241, 11.992929]}, "properties": {"id": "d9a04c94-531c-4dcb-a32e-3e497bd226a3", "name": "Access Model Schools, Kano", "category": "school", "iso": "NER", "country": "Niger", "source": "overture"}}, {"type": "Feature", "geometry": {"type": "Point", "coordinates": [8.517781, 11.993407]}, "properties": {"id": "efab618b-6a5c-4afc-ad84-5fc1b0d2b54f", "name": "Bege TV", "category": "school", "iso": "NER", "country": "Niger", "source": "overture"}}, {"type": "Feature", "geometry": {"type": "Point", "coordinates": [8.511585, 11.992186]}, "properties": {"id": "2cf1c616-239e-40c4-bfa9-42ee0be1204f", "name": "Iqraa Group of School Kano", "category": "education", "iso": "NER", "country": "Niger", "source": "overture"}}, {"type": "Feature", "geometry": {"type": "Point", "coordinates": [8.511585, 11.992186]}, "properties": {"id": "d5321396-ae41-478d-9515-4d1b145b05ce", "name": "Special Education School Shahuci.", "category": "school", "iso": "NER", "country": "Niger", "source": "overture"}}, {"type": "Feature", "geometry": {"type": "Point", "coordinates": [8.50338, 11.99206]},