{"type": "FeatureCollection", "name": "overture_schools_NER", "features": [{"type": "Feature", "geometry": {"type": "Point", "coordinates": [1.4528, 14.2103]}, "properties": {"id": "abbd6bbd-68e6-49c4-a4ec-bd6b717c29f3", "name": "Université de Tillabéri", "category": "college_university", "match": "both", "match_dist_m": 175.8, "match_name": "École de Filles", "name_sim": 0.526}}, {"type": "Feature", "geometry": {"type": "Point", "coordinates": [2.30043, 13.24463]}, "properties": {"id": "8a088797-8dbf-4bb0-9a26-4dcb6883d253", "name": "CodeLoccol", "category": "school"}}, {"type": "Feature", "geometry": {"type": "Point", "coordinates": [2.34, 13.137]}, "properties": {"id": "bc77ea26-ce2c-43b2-a607-e29b693595b3", "name": "Université populaire de Niamey", "category": "college_university"}}, {"type": "Feature", "geometry": {"type": "Point", "coordinates": [2.339607, 13.138099]}, "properties": {"id": "f76d3ace-c57a-4a56-9005-3aaec4259756", "name": "Islamic University of Say", "category": "college_university"}}, {"type": "Feature", "geometry": {"type": "Point", "coordinates": [2.34106, 13.136958]}, "properties": {"id": "b2d6c997-47e3-4c2b-959a-eef215ef3aac", "name": "Université islamique de Say", "category": "college_university"}}, {"type": "Feature", "geometry": {"type": "Point", "coordinates": [2.435944, 13.933481]}, "properties": {"id": "67e37ff9-fcb0-4b6b-8ea6-56db6bd82091", "name": "Groupe Scolaire Bilingue Innovation, Mpangou, Kribi", "category": "school"}}, {"type": "Feature", "geometry": {"type": "Point", "coordinates": [2.8125, 13.581705]}, "properties": {"id": "f59416ea-ad46-49c6-a04f-b4358eb0465e", "name": "Warren Turtles Group", "category": "school"}}, {"type": "Feature", "geometry": {"type": "Point", "coordinates": [2.197266, 13.91274]}, "properties": {"id": "fe6cee47-1d5b-4ec6-8745-c59cdad7c2bd", "name": "ХААИС, Хэрэглээний Шинжлэх Ухааны Сургууль", "category": "college_university"}}, {"type": "Feature", "geometry": {"type": "Point", "coordinates": [2.2162, 13.538764]}, "properties": {"id": "d2674911-457c-41fc-be10-8c807330765c", "name": "Crèche et Maternelle Jardin de Soudais", "category": "school"}}, {"type": "Feature", "geometry": {"type": "Point", "coordinates": [2.1881, 13.42139]}, "properties": {"id": "824dbaf8-6492-4d43-8275-bf5ad987ae69", "name": "Harouna Souley", "category": "school"}}, {"type": "Feature", "geometry": {"type": "Point", "coordinates": [2.1881, 13.4214]}, "properties": {"id": "fdcee062-3e9f-47b7-9f9d-1ed9e6e32168", "name": "Institut DOV", "category": "school"}}, {"type": "Feature", "geometry": {"type": "Point", "coordinates": [2.178718, 13.477215]}, "properties": {"id": "aa27c2ee-d856-49f5-8292-69215cf61c32", "name": "Pharmacie as salam", "category": "education"}}, {"type": "Feature", "geometry": {"type": "Point", "coordinates": [2.178718, 13.477215]}, "properties": {"id": "baf1f468-6f6e-4535-8f8b-26b41020af3b", "name": "CSP Khadija", "category": "college_university"}}, {"type": "Feature", "geometry": {"type": "Point", "coordinates": [2.149552, 13.527964]}, "properties": {"id": "b58c7745-5e2a-4632-9a45-69a97427f8ee", "name": "HAZA Auto-Ecole ", "category": "school"}}, {"type": "Feature", "geometry": {"type": "Point", "coordinates": [2.14926, 13.50488]}, "properties": {"id": "6ac84f1a-b28c-4ed4-98df-5827dc84c246", "name": "IIM Université de Niamey", "category": "college_university"}}, {"type": "Feature", "geometry": {"type": "Point", "coordinates": [2.144067, 13.516248]}, "properties": {"id": "09c52424-60ba-43d5-9a5a-9c516e2cc66b", "name": "Haute Ecole Privée de Gestion HEPG", "category": "school"}}, {"type": "Feature", "geometry": {"type": "Point", "coordinates": [2.141222, 13.511869]}, "properties": {"id": "63425876-ab43-40fc-a667-3de0ef6d2988", "name": "Institut Universitaire de Technologie Privé de Niamey/ Iut/pn", "category": "college_university"}}, {"type": "Feature", "geometry": {"type": "Point", "coordinates": [2.1334, 13.501455]}, "properties": {"id": "d5808726-778b-465c-ac9a-0dd5bfdd9a95", "name": "École Coranique Miftahous Sa'ada", "category": "school"}}, {"type": "Feature", "geometry": {"type": "Point", "coordinates": [2.13744, 13.502486]}, "properties": {"id": "3dcf527d-7ed4-4e17-b092-8e8a3202f93b", "name": "CES Koira Kano Nord - CEG25", "category": "school", "match": "both", "match_dist_m": 76.3, "match_name": "CSP le Conquérant", "name_sim": 0.286}}, {"type": "Feature", "geometry": {"type": "Point", "coordinates": [2.13416, 13.52294]}, "properties": {"id": "002b2274-d902-4fbd-bf4c-be542b94f9cf", "name": "IPAE", "category": "college_university"}}, {"type": "Feature", "geometry": {"type": "Point", "coordinates": [2.097852, 13.559832]}, "properties": {"id": "d027bb9a-8e73-4e98-a3c1-fdf88ff5ecf9", "name": "Sup management.Niger", "category": "college_university"}}, {"type": "Feature", "geometry": {"type": "Point", "coordinates": [2.09934, 13.54344]}, "properties": {"id": "40d9b6d2-80b6-45fe-a1ee-55e48e5d4c77", "name": "UES Estime", "category": "school"}}, {"type": "Feature", "geometry": {"type": "Point", "coordinates": [2.10376, 13.54256]}, "properties": {"id": "1ff6691c-466c-4488-8f47-78a1ff932fe0", "name": "Institut Privé d'Etudes Supérieures et de Langues - IPESL", "category": "school"}}, {"type": "Feature", "geometry": {"type": "Point", "coordinates": [2.109644, 13.568943]}, "properties": {"id": "874c6a96-f7f6-4474-ba4a-a94587ac843a", "name": "African Developpement Universalis", "category": "education"}}, {"type": "Feature", "geometry": {"type": "Point", "coordinates": [2.108744, 13.562091]}, "properties": {"id": "ddddbf1b-2d48-4c8f-a52f-c18a6739f1fa", "name": "SAbilou Alfalah", "category": "school"}}, {"type": "Feature", "geometry": {"type": "Point", "coordinates": [2.11145, 13.545503]}, "properties": {"id": "e426ae45-984f-4a02-9ea7-ed79f27224c3", "name": "Successway Niger", "category": "education"}}, {"type": "Feature", "geometry": {"type": "Point", "coordinates": [2.114091, 13.566155]}, "properties": {"id": "58ae08bb-9d63-4274-a066-2387c6e7f0c9", "name": "Université Privée Elite De Niamey - UPEN", "category": "school", "match": "both", "match_dist_m": 79.4, "match_name": "CSP Air Tenere", "name_sim": 0.269}}, {"type": "Feature", "geometry": {"type": "Point", "coordinates": [2.116032, 13.553224]}, "properties": {"id": "eff6e459-172f-48d2-8690-6c4b70a83966", "name": "La voix de L'education", "category": "college_university"}}, {"type": "Feature", "geometry": {"type": "Point", "coordinates": [2.11756, 13.55328]}, "properties": {"id": "80b0799c-aa3a-4223-8f3e-ad5d93ae0269", "name": "مجمع تهانينت التعليمي بالنيجر", "category": "college_university"}}, {"type": "Feature", "geometry": {"type": "Point", "coordinates": [2.132233, 13.510742]}, "properties": {"id": "d1400215-7c0a-499d-86a6-bbf91a1f7c07", "name": "Cet Asni", "category": "school", "match": "both", "match_dist_m": 65.2, "match_name": "CSP le Bon Berger", "name_sim": 0.24}}, {"type": "Feature", "geometry": {"type": "Point", "coordinates": [2.12177, 13.509955]}, "properties": {"id": "55cbcb53-9459-4259-82f7-d2c26fca6095", "name": "INET [ Institut Nigerien d`Enseignement Technologique ]", "category": "college_university"}}, {"type": "Feature", "geometry": {"type": "Point", "coordinates": [2.123804, 13.511924]}, "properties": {"id": "0a2cef0a-0d7a-410b-abc7-2da15d4caabf", "name": "Univers center", "category": "education"}}, {"type": "Feature", "geometry": {"type": "Point", "coordinates": [2.125152, 13.51793]}, "properties": {"id": "0cf55738-c12e-4c34-86b8-8aefed4d0712", "name": "ETEC Niamey", "category": "college_university", "match": "both", "match_dist_m": 33.7, "match_name": "ETEC", "name_sim": 0.533}}, {"type": "Feature", "geometry": {"type": "Point", "coordinates": [2.126654, 13.514652]}, "properties": {"id": "64a72c47-f6fc-4568-98fe-0bbdb658b86d", "name": "I.P.H.E.C", "category": "college_university", "match": "both", "match_dist_m": 88.9, "match_name": "CSP Excellence Learning School", "name_sim": 0.256}}, {"type": "Feature", "geometry": {"type": "Point", "coordinates": [2.125107, 13.537054]}, "properties": {"id": "9c4e902d-5d11-49e9-bbc3-17fca837a383", "name": "Swiss UMEF University of Niger", "category": "college_university"}}, {"type": "Feature", "geometry": {"type": "Point", "coordinates": [2.11626, 13.51634]}, "properties": {"id": "be7c020f-e118-4689-92fa-b7860a65af2b", "name": "ESCEP_Niger", "category": "school"}}, {"type": "Feature", "geometry": {"type": "Point", "coordinates": [2.11627, 13.51633]}, "properties": {"id": "e989f121-08cf-4635-9d0a-079f4623524b", "name": "ABC académie", "category": "school"}}, {"type": "Feature", "geometry": {"type": "Point", "coordinates": [2.11667, 13.5167]}, "properties": {"id": "a93ba8d0-4029-4d97-8a91-20ee0b3a34d3", "name": "MALI BERO", "category": "school"}}, {"type": "Feature", "geometry": {"type": "Point", "coordinates": [2.11667, 13.5167]}, "properties": {"id": "86b9fd8d-0048-4a6d-82db-31b09e9002ae", "name": "L'école de santé ISESS", "category": "school"}}, {"type": "Feature", "geometry": {"type": "Point", "coordinates": [2.11667, 13.5167]}, "properties": {"id": "30c98305-2ec0-4c3b-b183-ec4bdd870d6a", "name": "Complexe Scolaire Evangelique Prive Peniel", "category": "school"}}, {"type": "Feature", "geometry": {"type": "Point", "coordinates": [2.116385, 13.516259]}, "properties": {"id": "37abe394-cbcf-4b99-afd9-ab9cb26e4d07", "name": "ESPIM", "category": "college_university"}}, {"type": "Feature", "geometry": {"type": "Point", "coordinates": [2.116385, 13.516259]}, "properties": {"id": "e5483023-6f87-4409-88af-d1740faa83fc", "name": "Series House", "category": "school"}}, {"type": "Feature", "geometry": {"type": "Point", "coordinates": [2.116366, 13.516288]}, "properties": {"id": "7a1d2d01-eab1-4a23-bc85-9d071c329c6a", "name": "Institut Africain de Gestion & Technologie Niamey ", "category": "college_university"}}, {"type": "Feature", "geometry": {"type": "Point", "coordinates": [2.116366, 13.516288]}, "properties": {"id": "98580b80-c4dd-4e71-82c5-ecf5bd30c21f", "name": "RP WEC English club", "category": "education"}}, {"type": "Feature", "geometry": {"type": "Point", "coordinates": [2.116385, 13.516259]}, "properties": {"id": "647334b5-e304-4347-b1f7-e6afea1b8b4c", "name": "SP-Formation", "category": "education"}}, {"type": "Feature", "geometry": {"type": "Point", "coordinates": [2.11542, 13.51479]}, "properties": {"id": "57aafc4e-2525-4fe8-990c-a429dca903a0", "name": "IBMT Niger/Niamey", "category": "college_university", "match": "both", "match_dist_m": 74.0, "match_name": "CSP La Connaissance", "name_sim": 0.167}}, {"type": "Feature", "geometry": {"type": "Point", "coordinates": [2.11538, 13.51475]}, "properties": {"id": "11a05ad4-5880-48f4-8b63-665f1f8810e3", "name": "جامعة الوفاق الدولية -Upei", "category": "college_university"}}, {"type": "Feature", "geometry": {"type": "Point", "coordinates": [2.112937, 13.534152]}, "properties": {"id": "362bd360-3396-4529-afbe-b194436eba9e", "name": "Hecf Niger.", "category": "college_university"}}, {"type": "Feature", "geometry": {"type": "Point", "coordinates": [2.11416, 13.50508]}, "properties": {"id": "8c49c94a-5bca-4037-81b7-ca2635d0a8bc", "name": "HETEC Niamey", "category": "college_university", "match": "both", "match_dist_m": 47.2, "match_name": "École Primaire Terminus 2", "name_sim": 0.162}}, {"type": "Feature", "geometry": {"type": "Point", "coordinates": [2.105939, 13.508744]}, "properties": {"id": "c3cedfb7-4161-430f-84d6-a12037c7177a", "name": "UTI", "category": "college_university"}}, {"type": "Feature", "geometry": {"type": "Point", "coordinates": [2.106205, 13.508879]}, "properties": {"id": "94d2b869-33c5-4278-8bf5-b767a2c03ac6", "name": "مركز الصحابة للدعوة والإرشاد بنيامي جمهورية النيجر", "category": "college_university"}}, {"type": "Feature", "geometry": {"type": "Point", "coordinates": [2.109823, 13.516988]}, "properties": {"id": "82b0bfe9-b051-40a9-af45-6aca0b7ca233", "name": "C.L.A.B(school)", "category": "school"}}, {"type": "Feature", "geometry": {"type": "Point", "coordinates": [2.10698, 13.522102]}, "properties": {"id": "c1e750c9-24fe-486b-af86-e4735d015f40", "name": "Ecole Supérieure des Télécommunications - EST", "category": "school"}}, {"type": "Feature", "geometry": {"type": "Point", "coordinates": [2.106026, 13.523915]}, "properties": {"id": "8e6f5e5d-88bc-4df9-91bd-4f692ecb9ec6", "name": "Ena", "category": "school"}}, {"type": "Feature", "geometry": {"type": "Point", "coordinates": [2.10413, 13.52763]}, "properties": {"id": "d4415a83-2863-4dbf-b005-b2e65110f7c6", "name": "Centre des Metiers du Cuir et D'Art du Niger (CMCAN)", "category": "education"}}, {"type": "Feature", "geometry": {"type": "Point", "coordinates": [2.101586, 13.52499]}, "properties": {"id": "63d6bae8-8325-4567-b053-685f16bab68c", "name": "UIN - Université Internationale de Niamey", "category": "college_university"}}, {"type": "Feature", "geometry": {"type": "Point", "coordinates": [2.103555, 13.520694]}, "properties": {"id": "6fed7b0f-c81b-464c-9ff1-4332dc240839", "name": "Université Abdou Moumouni de Niamey", "category": "college_university"}}, {"type": "Feature", "geometry": {"type": "Point", "coordinates": [2.104, 13.5]}, "properties": {"id": "deef2d73-134c-446e-897d-5809368ffa03", "name": "Sahel Academy", "category": "school", "match": "both", "match_dist_m": 29.1, "match_name": "Sahel Academy", "name_sim": 1.0}}, {"type": "Feature", "geometry": {"type": "Point", "coordinates": [2.10089, 13.51348]}, "properties": {"id": "ec43422f-10b1-4e45-afe9-c8ba2737914e", "name": "Université islamique campus de Niamey ", "category": "school"}}, {"type": "Feature", "geometry": {"type": "Point", "coordinates": [2.101306, 13.517441]}, "properties": {"id": "b1a47749-a71e-4c22-99ae-f8cd583ca5b3", "name": "Madiba School", "category": "school"}}, {"type": "Feature", "geometry": {"type": "Point", "coordinates": [2.101261, 13.520917]}, "properties": {"id": "ca61482a-b0f1-44df-b3d6-bfb292bb1651", "name": "Lycée La Fontaine", "category": "school", "match": "both", "match_dist_m": 40.0, "match_name": "La Fontaine Collège et Lycée", "name_sim": 1.0}}, {"type": "Feature", "geometry": {"type": "Point", "coordinates": [2.098528, 13.501361]}, "properties": {"id": "e526176c-2414-4b98-bf8a-3f22ec6ae873", "name": "Abdou Moumouni University", "category": "college_university"}}, {"type": "Feature", "geometry": {"type": "Point", "coordinates": [2.090412, 13.503431]}, "properties": {"id": "18bc3089-f44a-4856-b15a-7119e3fd71c5", "name": "Université de Niamey", "category": "college_university"}}, {"type": "Feature", "geometry": {"type": "Point", "coordinates": [2.083819, 13.521739]}, "properties": {"id": "7f7021dc-6572-4b49-ac57-bcde3e54dc31", "name": "UTI-Niger", "category": "college_university"}}, {"type": "Feature", "geometry": {"type": "Point", "coordinates": [2.087323, 13.501894]}, "properties": {"id": "57813f2a-19ef-4ab8-bc40-f69da3a2496b", "name": "EMIG", "category": "college_university"}}, {"type": "Feature", "geometry": {"type": "Point", "coordinates": [2.087353, 13.501195]}, "properties": {"id": "0ebc3f28-7b05-408d-88fe-ce6b1586b473", "name": "École des mines, de l'industrie et de la géologie", "category": "college_university"}}, {"type": "Feature", "geometry": {"type": "Point", "coordinates": [2.076586, 13.506115]}, "properties": {"id": "bfed7616-5f8d-4b20-995c-666da29f4cca", "name": "CSP l'ile des petits anges", "category": "school"}}, {"type": "Feature", "geometry": {"type": "Point", "coordinates": [2.08159, 13.532314]}, "properties": {"id": "f371fbb6-3b82-4783-a78b-bbbb50fccaff", "name": "IAT Niger", "category": "college_university"}}, {"type": "Feature", "geometry": {"type": "Point", "coordinates": [2.074748, 13.538012]}, "properties": {"id": "a0e01817-2247-44e2-a023-7c7023df3656", "name": "Complex School Tayamana", "category": "school", "match": "both", "match_dist_m": 73.1, "match_name": "CSP Tayamana", "name_sim": 0.629}}, {"type": "Feature", "geometry": {"type": "Point", "coordinates": [2.07459, 13.526724]}, "properties": {"id": "f4540751-e981-4231-8dc0-46a00b1cd547", "name": "American International School of Niamey", "category": "school", "match": "both", "match_dist_m": 135.6, "match_name": "American International School of Niamey", "name_sim": 1.0}}, {"type": "Feature", "geometry": {"type": "Point", "coordinates": [2.074176, 13.52408]}, "properties": {"id": "844aca6d-671c-4888-8e88-8d7b61aa921a", "name": "Institut santé publique", "category": "school"}}, {"type": "Feature", "geometry": {"type": "Point", "coordinates": [2.068129, 13.525557]}, "properties": {"id": "4d5bab61-a4a7-486e-b56a-547a629d508b", "name": "Strat-CorePlus sarl", "category": "college_university"}}, {"type": "Feature", "geometry": {"type": "Point", "coordinates": [2.06723, 13.53454]}, "properties": {"id": "204629b8-9346-4ffd-962f-4155fd555a06", "name": "CSP Le Zénith", "category": "school"}}, {"type": "Feature", "geometry": {"type": "Point", "coordinates": [2.054231, 13.561968]}, "properties": {"id": "af8f7730-cb3e-4dd5-a9bb-c513841251ea", "name": "Cabinet Leader d'Afrique", "category": "education"}}, {"type": "Feature", "geometry": {"type": "Point", "coordinates": [2.060552, 13.551887]}, "properties": {"id": "581d26f7-aed3-4792-be6d-4c7648815140", "name": "LUCAS", "category": "college_university"}}, {"type": "Feature", "geometry": {"type": "Point", "coordinates": [2.082479, 13.540852]}, "properties": {"id": "a4791948-6792-47ed-8a51-38f70061efc0", "name": "ESPA MT", "category": "college_university"}}, {"type": "Feature", "geometry": {"type": "Point", "coordinates": [2.086134, 13.582242]}, "properties": {"id": "93370d50-4449-4288-b6cd-8c692c9ad482", "name": "CSP ADRA", "category": "school", "match": "both", "match_dist_m": 283.8, "match_name": "CSP Wanou", "name_sim": 0.588}}, {"type": "Feature", "geometry": {"type": "Point", "coordinates": [2.022637, 13.551083]}, "properties": {"id": "cd483d93-cfb0-49a1-a4a7-4e1dcbdc227c", "name": "American International School of Niamey", "category": "school", "match": "both", "match_dist_m": 95.3, "match_name": "École Primaire Gabagoura", "name_sim": 0.159}}, {"type": "Feature", "geometry": {"type": "Point", "coordinates": [1.975136, 13.7754]}, "properties": {"id": "2b1bc2c5-16bb-49d6-89d6-09124af724bd", "name": "Université Privée Diaba Lompo", "category": "college_university"}}, {"type": "Feature", "geometry": {"type": "Point", "coordinates": [1.757812, 14.604847]}, "properties": {"id": "09d5a328-d5d5-48e3-bd3e-864b2350fd69", "name": "Rose Garden Grammar School.", "category": "school"}}, {"type": "Feature", "geometry": {"type": "Point", "coordinates": [4.21875, 16.636192]}, "properties": {"id": "4db8d4bc-504a-4bde-b9a3-6f1f3aafce72", "name": "Sudeep Language Tutorials", "category": "college_university"}}, {"type": "Feature", "geometry": {"type": "Point", "coordinates": [3.515625, 11.867351]}, "properties": {"id": "2b41f9b2-2199-44e4-a85e-c051109c837e", "name": "Biga College of Education, Sokoto", "category": "college_university"}}, {"type": "Feature", "geometry": {"type": "Point", "coordinates": [3.164062, 12.554564]}, "properties": {"id": "8b4cd5ff-73ca-4b0c-9672-b632811a68d0", "name": "Maidik Schools", "category": "school"}}, {"type": "Feature", "geometry": {"type": "Point", "coordinates": [3.193254, 13.052442]}, "properties": {"id": "2e753393-eae9-4400-beea-90b6c9f6d9b8", "name": "INETE", "category": "college_university"}}, {"type": "Feature", "geometry": {"type": "Point", "coordinates": [3.19472, 13.0444]}, "properties": {"id": "6669a584-15f5-4427-97c1-71eaaed267a3", "name": "Medersa Ibnoul Kassoum مدرسة ابن القاسم", "category": "school"}}, {"type": "Feature", "geometry": {"type": "Point", "coordinates": [3.160081, 13.051668]}, "properties": {"id": "fce5f9ce-96c1-499d-b54c-1a917f0326dc", "name": "Université de Dosso", "category": "college_university"}}, {"type": "Feature", "geometry": {"type": "Point", "coordinates": [7.10303, 13.50082]}, "properties": {"id": "d09fa2b3-6b2e-4fea-b6c4-05350004a567", "name": "جامعة الرحمة الخاصة - Université Privée Ar-Rahma", "category": "college_university"}}, {"type": "Feature", "geometry": {"type": "Point", "coordinates": [7.0964, 13.4917]}, "properties": {"id": "917cb483-ceb1-4288-81f5-9f4cc913dc3a", "name": "Université libre de Maradi", "category": "college_university"}}, {"type": "Feature", "geometry": {"type": "Point", "coordinates": [7.122903, 13.491197]}, "properties": {"id": "16278862-d6b0-499f-a5d0-92df08bb4cbf", "name": "Maryam Abacha American University of Niger", "category": "college_university"}}, {"type": "Feature", "geometry": {"type": "Point", "coordinates": [7.128772, 13.492075]}, "properties": {"id": "f67f3811-ebde-4823-85ad-9eb74555a338", "name": "Universite De Maradi", "category": "college_university"}}, {"type": "Feature", "geometry": {"type": "Point", "coordinates": [8.87757, 13.42053]}, "properties": {"id": "c359d205-e30f-4fe2-b7c6-9682132dbf19", "name": "Madrasatu sabilul huda al-islamiyya.", "category": "college_university"}}, {"type": "Feature", "geometry": {"type": "Point", "coordinates": [12.61148, 13.31563]}, "properties": {"id": "afa2b695-a8bf-4f67-a01d-363df4a2f218", "name": "École coranique ibnu masoud diffa", "category": "college_university"}}, {"type": "Feature", "geometry": {"type": "Point", "coordinates": [12.61147, 13.31563]}, "properties": {"id": "e48da0ac-172e-41cc-891b-7e6dd6e515a9", "name": "CSP Al-auone", "category": "school"}}, {"type": "Feature", "geometry": {"type": "Point", "coordinates": [12.61147, 13.31563]}, "properties": {"id": "40744448-be15-4f67-8e4f-9fc70d16c3ea", "name": "Issoufou Saley", "category": "college_university"}}, {"type": "Feature", "geometry": {"type": "Point", "coordinates": [12.62, 13.32]}, "properties": {"id": "66c1c7ff-76e9-4bd5-a73e-8cf4b2628944", "name": "Université de Diffa", "category": "college_university"}}, {"type": "Feature", "geometry": {"type": "Point", "coordinates": [8.9883, 13.805159]}, "properties": {"id": "92c648b1-35a7-4fae-a25a-375b7d5ccfb6", "name": "Université de Zinder", "category": "college_university"}}, {"type": "Feature", "geometry": {"type": "Point", "coordinates": [8.987723, 13.804829]}, "properties": {"id": "2e429140-1264-4071-aac9-9f986611d7ca", "name": "Faculté des Sciences et Techniques Université André Salifou de Zinder", "category": "college_university"}}, {"type": "Feature", "geometry": {"type": "Point", "coordinates": [8.9883, 13.8053]}, "properties": {"id": "22a45485-0f0f-4f35-bcea-2b4654e24dc5", "name": "Ipes Zinder", "category": "college_university"}}, {"type": "Feature", "geometry": {"type": "Point", "coordinates": [8.98727, 13.80665]}, "properties": {"id": "8ab7e667-80da-46d1-aa32-629ff7d824ff", "name": "Markaz Fatimatouz Zahra Litahpiz Quouran Zinder", "category": "school"}}, {"type": "Feature", "geometry": {"type": "Point", "coordinates": [8.979309, 13.819799]}, "properties": {"id": "3218a876-0e9a-421e-a462-e796bfa61d99", "name": "ETEC Niger", "category": "college_university"}}, {"type": "Feature", "geometry": {"type": "Point", "coordinates": [8.986602, 13.842976]}, "properties": {"id": "3b9ac2ee-7a52-482b-9199-a343fa538372", "name": "Université André Salifou de Zinder", "category": "college_university"}}, {"type": "Feature", "geometry": {"type": "Point", "coordinates": [7.98709, 13.75816]}, "properties": {"id": "642f11fa-c6ed-4e12-a45c-9e215e2e6e53", "name": "Bochir", "category": "college_university"}}, {"type": "Feature", "geometry": {"type": "Point", "coordinates": [7.379213, 14.034407]}, "properties": {"id": "6575acdc-a417-4c9f-a424-82f9c3b368bc", "name": "Pragnya Degree & PG Colleges", "category": "college_university"}}, {"type": "Feature", "geometry": {"type": "Point", "coordinates": [9.788959, 14.121502]}, "properties": {"id": "555d7e01-674a-4ba2-a016-bd21abceac5d", "name": "A-Z Country Day School", "category": "school"}}, {"type": "Feature", "geometry": {"type": "Point", "coordinates": [13.10906, 14.24926]}, "properties": {"id": "5457687d-db52-4295-8616-7dd09563adb9", "name": "Lycée Maï Manga de N'guigmi", "category": "college_university"}}, {"type": "Feature", "geometry": {"type": "Point", "coordinates": [4.727004, 14.844394]}, "properties": {"id": "efb3b4d3-8af1-4546-8a0b-45b40f2a0e0c", "name": "Botho University - Accra, Ghana", "category": "college_university"}}, {"type": "Feature", "geometry": {"type": "Point", "coordinates": [5.280545, 14.868873]}, "properties": {"id": "36912ccd-3171-41b6-9508-1ff0785500d8", "name": "Universite De Tahoua", "category": "college_university"}}, {"type": "Feature", "geometry": {"type": "Point", "coordinates": [13.120776, 14.917446]}, "properties": {"id": "2b9ba039-ddf0-4326-980a-3974a1612d0a", "name": "MES Central School, Vadakkenchery", "category": "school"}}, {"type": "Feature", "geometry": {"type": "Point", "coordinates": [10.8582, 14.9727]}, "properties": {"id": "ef96ad97-1f8d-4782-837d-acd0471b8713", "name": "Oakley Church of England Junior School", "category": "school"}}, {"type": "Feature", "geometry": {"type": "Point", "coordinates": [5.26778, 14.8903]}, "properties": {"id": "eb398c96-bc99-4ef4-9a5e-6b28b5e63b61", "name": "IMMT-I2mt", "category": "college_university"}}, {"type": "Feature", "geometry": {"type": "Point", "coordinates": [5.26837, 14.88849]}, "properties": {"id": "b2f972d4-441e-48aa-8428-55c9e64a5268", "name": "Institut Universitaire de Technologie - IUT Tahoua", "category": "college_university"}}, {"type": "Feature", "geometry": {"type": "Point", "coordinates": [5.26837, 14.88849]}, "properties": {"id": "e5ee0121-fb4f-42ba-936f-49a60ac7dd1c", "name": "Enitec-NIGER", "category": "college_university"}}, {"type": "Feature", "geometry": {"type": "Point", "coordinates": [5.454712, 15.008464]}, "properties": {"id": "1dec9c18-7c54-40bd-990e-b7e3e6e8c42b", "name": "Centenary School - Bulawayo", "category": "school"}}, {"type": "Feature", "geometry": {"type": "Point", "coordinates": [7.03125, 15.284185]}, "properties": {"id": "eaa0d930-8393-4e33-ada1-41095541d7f1", "name": "DOWEA - Kaiserslautern Elementary School", "category": "school"}}, {"type": "Feature", "geometry": {"type": "Point", "coordinates": [11.540245, 15.416152]}, "properties": {"id": "270c8fed-0d15-4703-a5bb-6837c94f943f", "name": "Czabán Általános Iskola", "category": "school"}}, {"type": "Feature", "geometry": {"type": "Point", "coordinates": [7.03125, 15.961329]}, "properties": {"id": "5428f1fa-a78b-4d0d-8a09-1bd79e99e29a", "name": "Institut IRIS", "category": "school"}}, {"type": "Feature", "geometry": {"type": "Point", "coordinates": [10.898438, 16.024696]}, "properties": {"id": "dc221107-5e3c-4abe-a1bd-69c1283158af", "name": "Institut Privé Laïc Auguste Le Grand", "category": "school"}}, {"type": "Feature", "geometry": {"type": "Point", "coordinates": [6.679688, 16.636192]}, "properties": {"id": "dc6fc674-25a9-4274-a98e-dee6bcb57efe", "name": "SMK Cheras Jaya", "category": "school"}}, {"type": "Feature", "geometry": {"type": "Point", "coordinates": [10.394365, 16.537938]}, "properties": {"id": "589e6ec2-c868-4326-ada3-2ff15258f693", "name": "Rishaan Defence Career Academy  Chandigarh", "category": "school"}}, {"type": "Feature", "geometry": {"type": "Point", "coordinates": [11.286485, 16.637342]}, "properties": {"id": "9c0da639-3e84-4072-aace-b3b4c539f75f", "name": "Refrigeración y electricidad VIP", "category": "school"}}, {"type": "Feature", "geometry": {"type": "Point", "coordinates": [12.65625, 16.636192]}, "properties": {"id": "8d5c9b37-46e2-4b19-974c-8cbc71d2abb0", "name": "Sabony Complex School", "category": "college_university"}}, {"type": "Feature", "geometry": {"type": "Point", "coordinates": [14.737545, 16.461722]}, "properties": {"id": "b2b5e154-662b-4caa-bd77-77a13fd8bba0", "name": "KIPS College Multan Northern Bypass Campus", "category": "college_university"}}, {"type": "Feature", "geometry": {"type": "Point", "coordinates": [10.458984, 16.88866]}, "properties": {"id": "77633c06-fd65-441b-9a24-d863470bebdf", "name": "Barishal Metropolitan College", "category": "college_university"}}, {"type": "Feature", "geometry": {"type": "Point", "coordinates": [7.954471, 16.810503]}, "properties": {"id": "823ede32-fce7-4e61-8c65-222d22524ba1", "name": "G Co Edu Sen Sec School Rurka Kalan", "category": "school"}}, {"type": "Feature", "geometry": {"type": "Point", "coordinates": [8.004183, 16.974793]}, "properties": {"id": "6d660b3e-4efa-4013-89ab-8734624b41d1", "name": "École Supérieure d'Économie et de Gestion - ESEG d'Agadez", "category": "college_university"}}, {"type": "Feature", "geometry": {"type": "Point", "coordinates": [8.001517, 16.972508]}, "properties": {"id": "6ec9a1fe-04a3-44d3-bfdc-52c881cecbe8", "name": "Université D'agadez", "category": "college_university"}}, {"type": "Feature", "geometry": {"type": "Point", "coordinates": [7.98974, 16.97314]}, "properties": {"id": "2ad6a363-35c5-40ef-bbfa-4c73a7597b07", "name": "مدرسة دار الحديث والقرآن.", "category": "school"}}, {"type": "Feature", "geometry": {"type": "Point", "coordinates": [7.98974, 16.97314]}, "properties": {"id": "8d3db746-8e88-42eb-a6fc-7331e15a8e18", "name": "Universite D'Agadez", "category": "college_university"}}, {"type": "Feature", "geometry": {"type": "Point", "coordinates": [7.99083, 16.9739]}, "properties": {"id": "0e627b4c-b386-481f-a358-7de72cd7bef7", "name": "Section Lycée/Collège USN d'Agadez", "category": "school"}}, {"type": "Feature", "geometry": {"type": "Point", "coordinates": [9.620964, 17.193045]}, "properties": {"id": "fc446de6-33cb-4d54-bca6-21de8438f12a", "name": "Şəki şəhər kimya-biologiya təmayüllü respublika liseyi", "category": "education"}}, {"type": "Feature", "geometry": {"type": "Point", "coordinates": [5.990532, 17.317046]}, "properties": {"id": "ea573888-7e28-4c1f-91f5-1a5a0f86c2a4", "name": "Royal Nursing College - RNC", "category": "education"}}, {"type": "Feature", "geometry": {"type": "Point", "coordinates": [8.17868, 17.38676]}, "properties": {"id": "7cfaf237-3321-488b-bae6-c320697a4323", "name": "Ecole primaire privée Oasis de Tchirozérine", "category": "school"}}, {"type": "Feature", "geometry": {"type": "Point", "coordinates": [14.758737, 17.307541]}, "properties": {"id": "f1cb53d8-457a-4198-920a-60330a431bb3", "name": "مدرسة المجد للتعليم الاساسي ــ مدينة سرت", "category": "school"}}, {"type": "Feature", "geometry": {"type": "Point", "coordinates": [15.124569, 17.526631]}, "properties": {"id": "c8815550-539c-4630-bddd-44738b744ee6", "name": "Prashanti Vidya Mandir Gandhi Nagar.", "category": "school"}}, {"type": "Feature", "geometry": {"type": "Point", "coordinates": [14.063202, 17.545296]}, "properties": {"id": "05030dc7-fe62-4a98-a49e-cf75772990f6", "name": "Beaconhouse College Campus Jauhar", "category": "college_university"}}, {"type": "Feature", "geometry": {"type": "Point", "coordinates": [5.977592, 18.165752]}, "properties": {"id": "da9cc7e4-5f21-40c8-8472-5fdb42ae72e2", "name": "Lux Trading Academy", "category": "education"}}, {"type": "Feature", "geometry": {"type": "Point", "coordinates": [11.117725, 18.428805]}, "properties": {"id": "7a65c482-3556-4b19-80de-7b5b9ed3e05b", "name": "Cambridge Campus", "category": "school"}}, {"type": "Feature", "geometry": {"type": "Point", "coordinates": [13.550454, 18.28781]}, "properties": {"id": "9b7d3b36-bbaf-4a91-93ca-63c0e2dbe11c", "name": "Bridge Roses Montessori", "category": "school"}}, {"type": "Feature", "geometry": {"type": "Point", "coordinates": [7.03125, 18.646245]}, "properties": {"id": "7a1c4ff5-a31b-4787-9304-38198915f1e8", "name": "Creche Escola Castelinho- C.E.C", "category": "school"}}, {"type": "Feature", "geometry": {"type": "Point", "coordinates": [5.040378, 18.784507]}, "properties": {"id": "f7aae612-8bea-4f43-9503-8500bafc9867", "name": "Punjab College Sangla Hill", "category": "college_university"}}, {"type": "Feature", "geometry": {"type": "Point", "coordinates": [8.613281, 19.089596]}, "properties": {"id": "2bad32e3-3e04-4e92-8166-f5261bb9d0fb", "name": "Değirmen Çocuk Kulübü", "category": "education"}}, {"type": "Feature", "geometry": {"type": "Point", "coordinates": [9.140625, 19.311143]}, "properties": {"id": "ca866d07-e9d0-4730-a672-7141d6d4e87d", "name": "مدرسة أبو حامد الغزالــي - تسابيت-", "category": "school"}}, {"type": "Feature", "geometry": {"type": "Point", "coordinates": [10.546875, 19.311143]}, "properties": {"id": "c3ccfe79-b57f-44d7-a8ee-4ded4ef646d3", "name": "The Concepts Foundation", "category": "college_university"}}, {"type": "Feature", "geometry": {"type": "Point", "coordinates": [12.120323, 19.286932]}, "properties": {"id": "9717a014-ad4c-4227-b481-0ee10e4b2934", "name": "مركز تدريب مستشفى الهرم", "category": "college_university"}}, {"type": "Feature", "geometry": {"type": "Point", "coordinates": [12.871226, 18.796334]}, "properties": {"id": "d9b57197-f886-47cb-aa58-9bbe6c534be8", "name": "Rohanda High School(H.S)", "category": "school"}}, {"type": "Feature", "geometry": {"type": "Point", "coordinates": [13.203957, 18.759931]}, "properties": {"id": "553f7ad2-0f80-4a49-a659-8d9877779e4e", "name": "ISSR Vicenza", "category": "education"}}, {"type": "Feature", "geometry": {"type": "Point", "coordinates": [14.432854, 18.684853]}, "properties": {"id": "7b622c4d-3565-48c1-b07c-772f2d5fd749", "name": "Alkaram Madina High School Wahgrian Lahore", "category": "school"}}, {"type": "Feature", "geometry": {"type": "Point", "coordinates": [13.756771, 19.314707]}, "properties": {"id": "7ace796c-4770-4346-8928-bd38314130b7", "name": "Lugay- Lugay Central School", "category": "school"}}, {"type": "Feature", "geometry": {"type": "Point", "coordinates": [10.904274, 20.076248]}, "properties": {"id": "732bc7e2-1511-47d7-a485-825eea80b357", "name": "Career Pathway", "category": "education"}}, {"type": "Feature", "geometry": {"type": "Point", "coordinates": [9.132192, 19.58761]}, "properties": {"id": "67e283f4-bc87-47ae-b86b-88975e1d0c7d", "name": "Progressive Institution, Kontagora", "category": "school"}}, {"type": "Feature", "geometry": {"type": "Point", "coordinates": [6.691382, 20.128397]}, "properties": {"id": "4e1f7af9-89dd-4519-92da-449af4df2541", "name": "L'université biblique des vainqueurs - U.B.V", "category": "school"}}, {"type": "Feature", "geometry": {"type": "Point", "coordinates": [8.598218, 20.652222]}, "properties": {"id": "277e24d7-88b8-4475-add6-cd919433695f", "name": "Govt.Boys High School Trarkhel", "category": "school"}}, {"type": "Feature", "geometry": {"type": "Point", "coordinates": [10.195484, 21.294173]}, "properties": {"id": "151ba109-f9d9-4ef6-bae8-1054950e2436", "name": "Talent Hub Institute", "category": "education"}}, {"type": "Feature", "geometry": {"type": "Point", "coordinates": [15.029297, 20.220966]}, "properties": {"id": "2746c898-a91e-4770-8c4b-a30ae8c42a3f", "name": "Khyati College of Physiotherapy", "category": "college_university"}}, {"type": "Feature", "geometry": {"type": "Point", "coordinates": [11.964111, 22.268764]}, "properties": {"id": "24513518-c5fd-4198-acd3-513e446dc833", "name": "MotionLab", "category": "school"}}, {"type": "Feature", "geometry": {"type": "Point", "coordinates": [12.635428, 23.124369]}, "properties": {"id": "89300a0d-fc47-410a-a6cd-6405538b41af", "name": "The Leo Institute For Excellence", "category": "education"}}]}